{
  "נגב 299": [
    {
      "name_he": "א דהאבשה",
      "name_en": "E-Dahabshe, Arad, Israel",
      "time": "דקה וחצי",
      "lat": 31.226043,
      "lng": 35.147482
    },
    {
      "name_he": "אבו ג'ווייעד",
      "name_en": "Abu Jwei'ad, Israel",
      "time": "דקה וחצי",
      "lat": 31.180663,
      "lng": 35.072843
    },
    {
      "name_he": "אבו ג'ויעד",
      "name_en": "Abu Jwei'ed, Israel",
      "time": "דקה וחצי",
      "lat": 31.244839,
      "lng": 35.016059
    },
    {
      "name_he": "אבו קורינאת",
      "name_en": "Abu Qrenat, Israel",
      "time": "דקה וחצי",
      "lat": 31.103115,
      "lng": 34.952003
    },
    {
      "name_he": "אבו רביעה",
      "name_en": "Abu Rbei'a, Kuseife, Israel",
      "time": "דקה וחצי",
      "lat": 31.230811,
      "lng": 35.064209
    },
    {
      "name_he": "אבו רביעה צפונית לכסיפה",
      "name_en": "Abu Rbei'a (North to Kseifa), Israel",
      "time": "דקה וחצי",
      "lat": 31.282016,
      "lng": 35.039105
    },
    {
      "name_he": "אל ג'וויני",
      "name_en": "El-Jwini, Israel",
      "time": "דקה וחצי",
      "lat": 31.209706,
      "lng": 35.108483
    },
    {
      "name_he": "אל ג'נאמי",
      "name_en": "El-Ghanami, Israel",
      "time": "דקה וחצי",
      "lat": 31.216664,
      "lng": 35.093023
    },
    {
      "name_he": "אל עביד",
      "name_en": "El Abid, Israel",
      "time": "דקה וחצי",
      "lat": 31.265044,
      "lng": 35.091313
    },
    {
      "name_he": "אל קורעאן ב",
      "name_en": "El-Qur'an B, Israel",
      "time": "דקה וחצי",
      "lat": 31.22964,
      "lng": 35.10205
    },
    {
      "name_he": "אל קרישי",
      "name_en": "El-Qureishi, Israel",
      "time": "דקה וחצי",
      "lat": 31.269167,
      "lng": 35.089047
    },
    {
      "name_he": "אל קרעאן",
      "name_en": "El-Qar'an (South to Arad), Arad, Israel",
      "time": "דקה וחצי",
      "lat": 31.226467,
      "lng": 35.183196
    },
    {
      "name_he": "אל קשכר",
      "name_en": "El-Qashkar, Israel",
      "time": "דקה וחצי",
      "lat": 31.171185,
      "lng": 35.093502
    },
    {
      "name_he": "ג'נאביב",
      "name_en": "Janabib, Israel",
      "time": "דקה וחצי",
      "lat": 31.287156,
      "lng": 35.108132
    },
    {
      "name_he": "דריג'את",
      "name_en": "Drijat, Israel",
      "time": "דקה וחצי",
      "lat": 31.301885,
      "lng": 35.076793
    },
    {
      "name_he": "זבארגה",
      "name_en": "Zabarga, Israel",
      "time": "דקה וחצי",
      "lat": 31.236449,
      "lng": 35.03419
    },
    {
      "name_he": "כוחלה",
      "name_en": "Kokhla, Israel",
      "time": "דקה וחצי",
      "lat": 31.287112,
      "lng": 35.048572
    },
    {
      "name_he": "כסיפה",
      "name_en": "Kuseife, Israel",
      "time": "דקה וחצי",
      "lat": 31.249246,
      "lng": 35.083681
    },
    {
      "name_he": "מכחול",
      "name_en": "Makhul, Israel",
      "time": "דקה וחצי",
      "lat": 31.288515,
      "lng": 35.075736
    },
    {
      "name_he": "נצאצרה",
      "name_en": "Nasasra, Israel",
      "time": "דקה וחצי",
      "lat": 31.247033,
      "lng": 35.032332
    },
    {
      "name_he": "ערד",
      "name_en": "Arad, Israel",
      "time": "דקה וחצי",
      "lat": 31.261447,
      "lng": 35.214862
    },
    {
      "name_he": "ערערה בנגב",
      "name_en": "Ar'arat an-Naqab, Israel",
      "time": "דקה וחצי",
      "lat": 31.160927,
      "lng": 35.019757
    },
    {
      "name_he": "קבועה",
      "name_en": "",
      "time": "דקה וחצי",
      "lat": 0.0,
      "lng": 0.0
    },
    {
      "name_he": "קודייראת א צאנה",
      "name_en": "Qudeirat As Sani, Israel",
      "time": "דקה וחצי",
      "lat": 31.293107,
      "lng": 35.10564
    },
    {
      "name_he": "קשכר נבארי",
      "name_en": "Qishkar Nabari, Israel",
      "time": "דקה וחצי",
      "lat": 31.297625,
      "lng": 35.118316
    }
  ],
  "יהודה 207": [
    {
      "name_he": "א דיראת",
      "name_en": "al Dayrat",
      "time": "דקה וחצי",
      "lat": 31.443874,
      "lng": 35.15969
    },
    {
      "name_he": "א טבקה",
      "name_en": "alTabqa",
      "time": "דקה וחצי",
      "lat": 31.49649,
      "lng": 35.016446
    },
    {
      "name_he": "א טוואני",
      "name_en": "alTawani",
      "time": "דקה וחצי",
      "lat": 31.413761,
      "lng": 35.152657
    },
    {
      "name_he": "א ריחייה",
      "name_en": "al-Rayhiyya",
      "time": "דקה וחצי",
      "lat": 31.470478,
      "lng": 35.078903
    },
    {
      "name_he": "אדורה",
      "name_en": "צומת אדורה",
      "time": "דקה וחצי",
      "lat": 31.554637,
      "lng": 35.016261
    },
    {
      "name_he": "אזור תעסוקה מיתרים",
      "name_en": "",
      "time": "דקה וחצי",
      "lat": 0.0,
      "lng": 0.0
    },
    {
      "name_he": "אימריש",
      "name_en": "Imrish",
      "time": "דקה וחצי",
      "lat": 31.470305,
      "lng": 34.999744
    },
    {
      "name_he": "אל הג'רה",
      "name_en": "El-Hijra Street, Kafr Qasim, Israel",
      "time": "דקה וחצי",
      "lat": 32.11456,
      "lng": 34.982706
    },
    {
      "name_he": "אל חדב",
      "name_en": "al Hadab",
      "time": "דקה וחצי",
      "lat": 31.476157,
      "lng": 35.055239
    },
    {
      "name_he": "אל מאג'ור",
      "name_en": "al-Majur",
      "time": "דקה וחצי",
      "lat": 31.490175,
      "lng": 35.032481
    },
    {
      "name_he": "אל מראג'ם",
      "name_en": "al-Marajem",
      "time": "דקה וחצי",
      "lat": 31.490163,
      "lng": 35.021646
    },
    {
      "name_he": "אל עלקה אל פוקא",
      "name_en": "al'Alaqa al Fawqa",
      "time": "דקה וחצי",
      "lat": 31.460376,
      "lng": 35.009196
    },
    {
      "name_he": "אל פוואר",
      "name_en": "al Fawar",
      "time": "דקה וחצי",
      "lat": 31.478368,
      "lng": 35.065511
    },
    {
      "name_he": "אל קוסור",
      "name_en": "al-Qusur",
      "time": "דקה וחצי",
      "lat": 31.500089,
      "lng": 35.011176
    },
    {
      "name_he": "אפיניש",
      "name_en": "Afeinish, Israel",
      "time": "דקה וחצי",
      "lat": 31.316183,
      "lng": 34.996386
    },
    {
      "name_he": "בית עינון",
      "name_en": "Bayt Einun",
      "time": "דקה וחצי",
      "lat": 31.564738,
      "lng": 35.128303
    },
    {
      "name_he": "בית עמרה",
      "name_en": "Bayt Amra",
      "time": "דקה וחצי",
      "lat": 31.447734,
      "lng": 35.053087
    },
    {
      "name_he": "בני נעים",
      "name_en": "Bani Na'im",
      "time": "דקה וחצי",
      "lat": 31.514866,
      "lng": 35.16534
    },
    {
      "name_he": "ג'רון א לוז",
      "name_en": "Jurun alLuz",
      "time": "דקה וחצי",
      "lat": 31.545875,
      "lng": 35.173797
    },
    {
      "name_he": "דהרייה",
      "name_en": "",
      "time": "דקה וחצי",
      "lat": 0.0,
      "lng": 0.0
    },
    {
      "name_he": "דיר סאמת",
      "name_en": "Dayr Samet",
      "time": "דקה וחצי",
      "lat": 31.519929,
      "lng": 34.97267100000001
    },
    {
      "name_he": "דיר ראזח",
      "name_en": "Dayr Razeh",
      "time": "דקה וחצי",
      "lat": 31.467361,
      "lng": 35.040913
    },
    {
      "name_he": "הר עמשא",
      "name_en": "Har Amasa, Israel",
      "time": "דקה וחצי",
      "lat": 31.342717,
      "lng": 35.101599
    },
    {
      "name_he": "ואדיח",
      "name_en": "Wadeh",
      "time": "דקה וחצי",
      "lat": 31.504589,
      "lng": 35.00485
    },
    {
      "name_he": "זיף",
      "name_en": "Zif",
      "time": "דקה וחצי",
      "lat": 31.478531,
      "lng": 35.140697
    },
    {
      "name_he": "חברון",
      "name_en": "Hebron",
      "time": "דקה וחצי",
      "lat": 31.532569,
      "lng": 35.09982600000001
    },
    {
      "name_he": "חגי",
      "name_en": "Hagai Street, Petah Tikva, Israel",
      "time": "דקה וחצי",
      "lat": 32.0703008,
      "lng": 34.8971543
    },
    {
      "name_he": "ח'ירבת זיתא",
      "name_en": "Khirbat Zayta",
      "time": "דקה וחצי",
      "lat": 31.559274,
      "lng": 35.123932
    },
    {
      "name_he": "ח'ירבת כרמה",
      "name_en": "Khirbat Karme",
      "time": "דקה וחצי",
      "lat": 31.449783,
      "lng": 35.026095
    },
    {
      "name_he": "ח'רסה",
      "name_en": "HaRasa",
      "time": "דקה וחצי",
      "lat": 31.48269,
      "lng": 35.015788
    },
    {
      "name_he": "ח'שם אל כרם",
      "name_en": "Hashem al-Karm",
      "time": "דקה וחצי",
      "lat": 31.410081,
      "lng": 35.22997
    },
    {
      "name_he": "טנא עומרים",
      "name_en": "Tene",
      "time": "דקה וחצי",
      "lat": 31.376132,
      "lng": 34.957383
    },
    {
      "name_he": "יטא יוטה",
      "name_en": "Yata",
      "time": "דקה וחצי",
      "lat": 31.44414999999999,
      "lng": 35.090105
    },
    {
      "name_he": "כעאבנה",
      "name_en": "Ka'abne",
      "time": "דקה וחצי",
      "lat": 31.54468,
      "lng": 35.256736
    },
    {
      "name_he": "כרזה",
      "name_en": "Karza",
      "time": "דקה וחצי",
      "lat": 31.440961,
      "lng": 34.99744
    },
    {
      "name_he": "כרמיל",
      "name_en": "Karmil",
      "time": "דקה וחצי",
      "lat": 31.422234,
      "lng": 35.134154
    },
    {
      "name_he": "לב יתיר",
      "name_en": "Lev Yatir, Israel",
      "time": "דקה וחצי",
      "lat": 31.347793,
      "lng": 35.060671
    },
    {
      "name_he": "מג'ד",
      "name_en": "Majd",
      "time": "דקה וחצי",
      "lat": 31.480774,
      "lng": 34.951094
    },
    {
      "name_he": "מעון",
      "name_en": "Ma'on",
      "time": "דקה וחצי",
      "lat": 31.414592,
      "lng": 35.163893
    },
    {
      "name_he": "מעין",
      "name_en": "HaMa'ayan Street, Ben Ami, Israel",
      "time": "דקה וחצי",
      "lat": 33.0050852,
      "lng": 35.1290358
    },
    {
      "name_he": "מצדות יהודה",
      "name_en": "Metsadot Yehuda",
      "time": "דקה וחצי",
      "lat": 31.365586,
      "lng": 35.11134
    },
    {
      "name_he": "נגוהות",
      "name_en": "Negohot",
      "time": "דקה וחצי",
      "lat": 31.493077,
      "lng": 34.983347
    },
    {
      "name_he": "סובא",
      "name_en": "Suba",
      "time": "דקה וחצי",
      "lat": 31.543322,
      "lng": 34.992174
    },
    {
      "name_he": "סוסיה",
      "name_en": "Susya",
      "time": "דקה וחצי",
      "lat": 31.391051,
      "lng": 35.110978
    },
    {
      "name_he": "סימיא",
      "name_en": "Simya",
      "time": "דקה וחצי",
      "lat": 31.421629,
      "lng": 35.033465
    },
    {
      "name_he": "סמוע",
      "name_en": "Samu'a",
      "time": "דקה וחצי",
      "lat": 31.39861,
      "lng": 35.065288
    },
    {
      "name_he": "עבדה",
      "name_en": "Abda",
      "time": "דקה וחצי",
      "lat": 31.466523,
      "lng": 35.011177
    },
    {
      "name_he": "עווד",
      "name_en": "Awad",
      "time": "דקה וחצי",
      "lat": 31.512436,
      "lng": 35.011952
    },
    {
      "name_he": "עוזיז",
      "name_en": "Uzeiz",
      "time": "דקה וחצי",
      "lat": 31.429307,
      "lng": 35.081549
    },
    {
      "name_he": "ענאב אל כביר",
      "name_en": "Anab Al-Kabir",
      "time": "דקה וחצי",
      "lat": 31.395352,
      "lng": 34.927618
    },
    {
      "name_he": "עתניאל",
      "name_en": "Otni'el",
      "time": "דקה וחצי",
      "lat": 31.438812,
      "lng": 35.028163
    },
    {
      "name_he": "פוקיקיס",
      "name_en": "Fuqeiqis",
      "time": "דקה וחצי",
      "lat": 31.488847,
      "lng": 34.983393
    },
    {
      "name_he": "פני חבר",
      "name_en": "Pnei Hever",
      "time": "דקה וחצי",
      "lat": 31.487074,
      "lng": 35.1651
    },
    {
      "name_he": "קוואעין",
      "name_en": "Qawa'in, Israel",
      "time": "דקה וחצי",
      "lat": 31.323303,
      "lng": 35.026031
    },
    {
      "name_he": "קילקיס",
      "name_en": "Qilqis",
      "time": "דקה וחצי",
      "lat": 31.493685,
      "lng": 35.092627
    },
    {
      "name_he": "קרית ארבע",
      "name_en": "Kiryat Arba",
      "time": "דקה וחצי",
      "lat": 31.529326,
      "lng": 35.115625
    },
    {
      "name_he": "ראבוד",
      "name_en": "Rabud",
      "time": "דקה וחצי",
      "lat": 31.431382,
      "lng": 35.021854
    },
    {
      "name_he": "ראפאת ליד סמוע",
      "name_en": "Rafat",
      "time": "דקה וחצי",
      "lat": 31.386332,
      "lng": 35.061404
    },
    {
      "name_he": "רוג'ם אום ח'יר",
      "name_en": "Rujm Um Heir",
      "time": "דקה וחצי",
      "lat": 31.424476,
      "lng": 35.196438
    },
    {
      "name_he": "רוקעה",
      "name_en": "Ruq'a",
      "time": "דקה וחצי",
      "lat": 31.461812,
      "lng": 35.113605
    },
    {
      "name_he": "שוויכה בהר חברון",
      "name_en": "Shuweika",
      "time": "דקה וחצי",
      "lat": 31.40259,
      "lng": 35.007054
    },
    {
      "name_he": "שייח' אחמד אל עבד",
      "name_en": "Shaykh Ahmed alAbd",
      "time": "דקה וחצי",
      "lat": 31.503574,
      "lng": 35.007181
    },
    {
      "name_he": "שמעה",
      "name_en": "Shim'a",
      "time": "דקה וחצי",
      "lat": 31.387342,
      "lng": 35.012699
    },
    {
      "name_he": "שני ליבנה",
      "name_en": "Shani-Livne, Israel",
      "time": "דקה וחצי",
      "lat": 31.356576,
      "lng": 35.06989100000001
    },
    {
      "name_he": "תפוח",
      "name_en": "Tapuah",
      "time": "דקה וחצי",
      "lat": 31.538448,
      "lng": 35.050973
    },
    {
      "name_he": "תראמה",
      "name_en": "Tarama",
      "time": "דקה וחצי",
      "lat": 31.481397,
      "lng": 35.032693
    }
  ],
  "נגב 300 (דקה)": [
    {
      "name_he": "א דנפירי",
      "name_en": "E-Danfiri, Israel",
      "time": "דקה",
      "lat": 31.1277,
      "lng": 34.813964
    },
    {
      "name_he": "אבו עפאש",
      "name_en": "Abu Afash, Israel",
      "time": "דקה",
      "lat": 31.15986,
      "lng": 34.808983
    },
    {
      "name_he": "אזור תעשייה רמת בקע",
      "name_en": "",
      "time": "דקה",
      "lat": 0.0,
      "lng": 0.0
    },
    {
      "name_he": "אל ג'רג'אווי",
      "name_en": "El-Jarjawi, Israel",
      "time": "דקה",
      "lat": 31.147081,
      "lng": 34.819719
    },
    {
      "name_he": "אל ולידי",
      "name_en": "El-Walidi, Israel",
      "time": "דקה",
      "lat": 31.177992,
      "lng": 34.815901
    },
    {
      "name_he": "אל כלאב",
      "name_en": "El-Kilab, Israel",
      "time": "דקה",
      "lat": 31.107915,
      "lng": 34.850613
    },
    {
      "name_he": "עזאזמה",
      "name_en": "Azazme (South to Segev Shalom), Israel",
      "time": "דקה",
      "lat": 31.16215,
      "lng": 34.820191
    },
    {
      "name_he": "עזאזמה דרומית לרמת חובב",
      "name_en": "Azazme (South to Ramat Khovav), Israel",
      "time": "דקה",
      "lat": 31.098688,
      "lng": 34.836807
    },
    {
      "name_he": "עזאזמה דרומית לשגב שלום",
      "name_en": "Azazme (South to Segev Shalom), Israel",
      "time": "דקה",
      "lat": 31.16215,
      "lng": 34.820191
    },
    {
      "name_he": "עזאזמה מזרחית לרמת חובב",
      "name_en": "Azazme (East to Ramat Khovav), Israel",
      "time": "דקה",
      "lat": 31.13089,
      "lng": 34.817161
    },
    {
      "name_he": "תארבין א צאנה שבט",
      "name_en": "",
      "time": "דקה",
      "lat": 0.0,
      "lng": 0.0
    }
  ],
  "באר שבע 286 (45 שניות)": [
    {
      "name_he": "א זיאדנה דרומית לרהט",
      "name_en": "E-Ziyadna (South to Rahat), Rahat, Israel",
      "time": "45 שניות",
      "lat": 31.367093,
      "lng": 34.740095
    },
    {
      "name_he": "א זיאדנה צפונית לרהט",
      "name_en": "E-Ziyadna (North to Rahat), Israel",
      "time": "45 שניות",
      "lat": 31.414435,
      "lng": 34.77579
    },
    {
      "name_he": "אל הייל",
      "name_en": "El-Heil, Israel",
      "time": "45 שניות",
      "lat": 31.408423,
      "lng": 34.748283
    },
    {
      "name_he": "אל חוקוק",
      "name_en": "El-Huquq, Rahat, Israel",
      "time": "45 שניות",
      "lat": 31.379304,
      "lng": 34.740385
    },
    {
      "name_he": "אל עתאיקה",
      "name_en": "El-Ata'iqa, Rahat, Israel",
      "time": "45 שניות",
      "lat": 31.376914,
      "lng": 34.746405
    },
    {
      "name_he": "בית קמה",
      "name_en": "Beit Kama, Israel",
      "time": "45 שניות",
      "lat": 31.446566,
      "lng": 34.762248
    },
    {
      "name_he": "גבעות בר",
      "name_en": "Giv'ot Bar, Israel",
      "time": "45 שניות",
      "lat": 31.357209,
      "lng": 34.755541
    },
    {
      "name_he": "דבירה",
      "name_en": "Dvir, Israel",
      "time": "45 שניות",
      "lat": 31.411699,
      "lng": 34.825177
    },
    {
      "name_he": "הוזייל",
      "name_en": "Abu wadi, Israel",
      "time": "45 שניות",
      "lat": 31.414487,
      "lng": 34.761872
    },
    {
      "name_he": "כפר נוער עדנים",
      "name_en": "Simtat HaNo'ar, Ramot HaShavim, Israel",
      "time": "45 שניות",
      "lat": 32.165107,
      "lng": 34.882074
    },
    {
      "name_he": "להבים",
      "name_en": "Lehavim, Israel",
      "time": "45 שניות",
      "lat": 31.373835,
      "lng": 34.816952
    },
    {
      "name_he": "מפעלי אבשלום",
      "name_en": "מפעלי אבשלום",
      "time": "45 שניות",
      "lat": 31.441324,
      "lng": 34.763374
    },
    {
      "name_he": "משמר הנגב",
      "name_en": "Mishmar HaNegev, Israel",
      "time": "45 שניות",
      "lat": 31.364796,
      "lng": 34.71796800000001
    },
    {
      "name_he": "רהט",
      "name_en": "Rahat, Israel",
      "time": "45 שניות",
      "lat": 31.394548,
      "lng": 34.753934
    },
    {
      "name_he": "שובל",
      "name_en": "Shoval, Israel",
      "time": "45 שניות",
      "lat": 31.413734,
      "lng": 34.745814
    },
    {
      "name_he": "תראבין א צאנה",
      "name_en": "Tirabin al-Sana, Israel",
      "time": "45 שניות",
      "lat": 31.345481,
      "lng": 34.739126
    }
  ],
  "ירושלים  194": [
    {
      "name_he": "א זעיים",
      "name_en": "alZa'im",
      "time": "דקה וחצי",
      "lat": 31.787701,
      "lng": 35.263531
    },
    {
      "name_he": "אבו דיס",
      "name_en": "Abu Dis",
      "time": "דקה וחצי",
      "lat": 31.763582,
      "lng": 35.257722
    },
    {
      "name_he": "אל ולג'ה",
      "name_en": "alWalaja",
      "time": "דקה וחצי",
      "lat": 31.729394,
      "lng": 35.15853
    },
    {
      "name_he": "ביר נבאלה",
      "name_en": "Bir Nabala",
      "time": "דקה וחצי",
      "lat": 31.85118199999999,
      "lng": 35.200835
    },
    {
      "name_he": "בית איכסא",
      "name_en": "Bayt Iksa",
      "time": "דקה וחצי",
      "lat": 31.816677,
      "lng": 35.180006
    },
    {
      "name_he": "בית חנינא",
      "name_en": "Beit Hanina, Jerusalem",
      "time": "דקה וחצי",
      "lat": 31.830131,
      "lng": 35.225205
    },
    {
      "name_he": "דיר כרמיזן",
      "name_en": "Dayr Kirmizan",
      "time": "דקה וחצי",
      "lat": 31.727104,
      "lng": 35.172569
    },
    {
      "name_he": "חיזמא",
      "name_en": "Hizma",
      "time": "דקה וחצי",
      "lat": 31.836461,
      "lng": 35.263231
    },
    {
      "name_he": "ירושלים",
      "name_en": "Jerusalem, Israel",
      "time": "דקה וחצי",
      "lat": 31.768319,
      "lng": 35.21371
    },
    {
      "name_he": "ענאתא",
      "name_en": "Anata",
      "time": "דקה וחצי",
      "lat": 31.811201,
      "lng": 35.259602
    },
    {
      "name_he": "רמת רחל",
      "name_en": "Ramat Rachel, Israel",
      "time": "דקה וחצי",
      "lat": 31.7403163,
      "lng": 35.2178825
    }
  ],
  "שומרון 123": [
    {
      "name_he": "א לובאן",
      "name_en": "alLuban",
      "time": "דקה וחצי",
      "lat": 32.035776,
      "lng": 35.038365
    },
    {
      "name_he": "בית אריה",
      "name_en": "Beit Arye",
      "time": "דקה וחצי",
      "lat": 32.040059,
      "lng": 35.049472
    },
    {
      "name_he": "ברוכין",
      "name_en": "Bruchin",
      "time": "דקה וחצי",
      "lat": 32.082231,
      "lng": 35.094113
    },
    {
      "name_he": "דיר בלוט",
      "name_en": "Dayr Balut",
      "time": "דקה וחצי",
      "lat": 32.065033,
      "lng": 35.025549
    },
    {
      "name_he": "עופרים",
      "name_en": "Ofarim Street, Gedera, Israel",
      "time": "דקה וחצי",
      "lat": 31.804905,
      "lng": 34.7780545
    },
    {
      "name_he": "עלי זהב",
      "name_en": "Alei Zahav",
      "time": "דקה וחצי",
      "lat": 32.072227,
      "lng": 35.064135
    },
    {
      "name_he": "פדואל",
      "name_en": "Pedu'el",
      "time": "דקה וחצי",
      "lat": 32.062479,
      "lng": 35.052619
    },
    {
      "name_he": "ראפאת",
      "name_en": "Rafat",
      "time": "דקה וחצי",
      "lat": 32.078686,
      "lng": 35.045287
    },
    {
      "name_he": "שקבא",
      "name_en": "",
      "time": "דקה וחצי",
      "lat": 0.0,
      "lng": 0.0
    }
  ],
  "נגב 296": [
    {
      "name_he": "א נבארי",
      "name_en": "E-Nabari, Hura, Israel",
      "time": "דקה וחצי",
      "lat": 31.282467,
      "lng": 34.941101
    },
    {
      "name_he": "אל סייד",
      "name_en": "E-Sayed, Sakhnin, Israel",
      "time": "דקה וחצי",
      "lat": 32.860226,
      "lng": 35.300337
    },
    {
      "name_he": "אל עטאונה",
      "name_en": "אל עטאונה",
      "time": "דקה וחצי",
      "lat": 31.300124,
      "lng": 34.912298
    },
    {
      "name_he": "אעצם",
      "name_en": "A'sam, Israel",
      "time": "דקה וחצי",
      "lat": 31.295816,
      "lng": 34.903102
    },
    {
      "name_he": "חורה",
      "name_en": "Hura, Israel",
      "time": "דקה וחצי",
      "lat": 31.300399,
      "lng": 34.935688
    },
    {
      "name_he": "כרמים",
      "name_en": "Kramim Street, Mevaseret Zion, Israel",
      "time": "דקה וחצי",
      "lat": 31.7900076,
      "lng": 35.1486417
    },
    {
      "name_he": "כרמית",
      "name_en": "Derech Karmit, Jerusalem, Israel",
      "time": "דקה וחצי",
      "lat": 31.7631588,
      "lng": 35.1692276
    },
    {
      "name_he": "מולדה",
      "name_en": "Molada Street, Dimona, Israel",
      "time": "דקה וחצי",
      "lat": 31.0746372,
      "lng": 35.0292711
    },
    {
      "name_he": "מיתר",
      "name_en": "Meitar, Israel",
      "time": "דקה וחצי",
      "lat": 31.327011,
      "lng": 34.943213
    },
    {
      "name_he": "סנסנה",
      "name_en": "Sansana, Israel",
      "time": "דקה וחצי",
      "lat": 31.36176499999999,
      "lng": 34.901003
    },
    {
      "name_he": "עוקבי",
      "name_en": "Uqbi, Israel",
      "time": "דקה וחצי",
      "lat": 31.283211,
      "lng": 34.930794
    }
  ],
  "קו העימות 15": [
    {
      "name_he": "א נוואקיר",
      "name_en": "al-Nawaqir, Israel",
      "time": "מיידי",
      "lat": 33.090788,
      "lng": 35.213638
    },
    {
      "name_he": "אדמית",
      "name_en": "Adamit, Israel",
      "time": "מיידי",
      "lat": 33.078842,
      "lng": 35.20951
    },
    {
      "name_he": "אידמית",
      "name_en": "Idmit, Israel",
      "time": "מיידי",
      "lat": 33.080013,
      "lng": 35.199967
    },
    {
      "name_he": "אילון",
      "name_en": "Eilon, Israel",
      "time": "מיידי",
      "lat": 33.062526,
      "lng": 35.219162
    },
    {
      "name_he": "ג'ורדיח",
      "name_en": "Jordeikh, Israel",
      "time": "מיידי",
      "lat": 33.097041,
      "lng": 35.221622
    },
    {
      "name_he": "גורן",
      "name_en": "Goren, Israel",
      "time": "מיידי",
      "lat": 33.055566,
      "lng": 35.233619
    },
    {
      "name_he": "גורנות הגליל",
      "name_en": "Gornot HaGalil, Israel",
      "time": "מיידי",
      "lat": 33.059286,
      "lng": 35.24967
    },
    {
      "name_he": "חניתה",
      "name_en": "Hanita, Israel",
      "time": "מיידי",
      "lat": 33.087634,
      "lng": 35.17343
    },
    {
      "name_he": "יערה",
      "name_en": "Ya'ara, Israel",
      "time": "מיידי",
      "lat": 33.068013,
      "lng": 35.18608
    },
    {
      "name_he": "עראמשה",
      "name_en": "Arab al-Aramshe, Israel",
      "time": "מיידי",
      "lat": 33.088834,
      "lng": 35.228839
    }
  ],
  "קצרין 7": [
    {
      "name_he": "א סלבה",
      "name_en": "al-Saliba",
      "time": "15 שניות",
      "lat": 32.929395,
      "lng": 35.71276599999999
    },
    {
      "name_he": "אניעם",
      "name_en": "Ani'am",
      "time": "15 שניות",
      "lat": 32.956638,
      "lng": 35.739718
    },
    {
      "name_he": "ברוכים קלע אלון",
      "name_en": "Bruchim Qela' Alon",
      "time": "15 שניות",
      "lat": 33.131601,
      "lng": 35.69039
    },
    {
      "name_he": "חד נס",
      "name_en": "Had Nes",
      "time": "15 שניות",
      "lat": 32.927514,
      "lng": 35.641408
    },
    {
      "name_he": "כנף",
      "name_en": "Kanaf",
      "time": "15 שניות",
      "lat": 32.870412,
      "lng": 35.697897
    },
    {
      "name_he": "מעלה גמלא",
      "name_en": "Ma'ale Gamla",
      "time": "15 שניות",
      "lat": 32.88825600000001,
      "lng": 35.685966
    },
    {
      "name_he": "קדמת צבי",
      "name_en": "Kidmat Tsvi Street, Rishon LeTsiyon, Israel",
      "time": "15 שניות",
      "lat": 31.984647,
      "lng": 34.764917
    },
    {
      "name_he": "קצרין",
      "name_en": "Qatsrin",
      "time": "15 שניות",
      "lat": 32.990998,
      "lng": 35.689865
    },
    {
      "name_he": "שעל",
      "name_en": "Sha'al Street, Rishon LeTsiyon, Israel",
      "time": "15 שניות",
      "lat": 31.9842233,
      "lng": 34.7618019
    }
  ],
  "שומרון 126": [
    {
      "name_he": "א ראם",
      "name_en": "al-Ram",
      "time": "דקה וחצי",
      "lat": 31.849252,
      "lng": 35.233489
    },
    {
      "name_he": "אבו קש",
      "name_en": "Abu Qash",
      "time": "דקה וחצי",
      "lat": 31.950733,
      "lng": 35.184719
    },
    {
      "name_he": "אבו שחידם",
      "name_en": "Abu Shukhaydam",
      "time": "דקה וחצי",
      "lat": 31.966531,
      "lng": 35.170814
    },
    {
      "name_he": "אל בירה",
      "name_en": "al Bira",
      "time": "דקה וחצי",
      "lat": 31.912563,
      "lng": 35.221717
    },
    {
      "name_he": "בורקה",
      "name_en": "Burka",
      "time": "דקה וחצי",
      "lat": 31.896059,
      "lng": 35.254768
    },
    {
      "name_he": "בילעין",
      "name_en": "Bil'in",
      "time": "דקה וחצי",
      "lat": 31.92851599999999,
      "lng": 35.070954
    },
    {
      "name_he": "בית איענאן",
      "name_en": "Beit 'Anan",
      "time": "דקה וחצי",
      "lat": 31.851065,
      "lng": 35.111719
    },
    {
      "name_he": "בית אל",
      "name_en": "Beit El",
      "time": "דקה וחצי",
      "lat": 31.94159999999999,
      "lng": 35.222734
    },
    {
      "name_he": "בית דוקו",
      "name_en": "Bayt Duqu",
      "time": "דקה וחצי",
      "lat": 31.859417,
      "lng": 35.130739
    },
    {
      "name_he": "בית חורון",
      "name_en": "Beit Horon",
      "time": "דקה וחצי",
      "lat": 31.87989,
      "lng": 35.124097
    },
    {
      "name_he": "בית ליקיא",
      "name_en": "Bayt Liqya",
      "time": "דקה וחצי",
      "lat": 31.869937,
      "lng": 35.065202
    },
    {
      "name_he": "בית סירא",
      "name_en": "Bayt Sira",
      "time": "דקה וחצי",
      "lat": 31.88743,
      "lng": 35.04532
    },
    {
      "name_he": "בית עיור א תחתא",
      "name_en": "Bayt Ghur al-Tahta",
      "time": "דקה וחצי",
      "lat": 31.895181,
      "lng": 35.083874
    },
    {
      "name_he": "בית עיור אל פוקא",
      "name_en": "Bayt Ghur al-Foqa",
      "time": "דקה וחצי",
      "lat": 31.886181,
      "lng": 35.114256
    },
    {
      "name_he": "ביתוניא",
      "name_en": "Baituniya",
      "time": "דקה וחצי",
      "lat": 31.889281,
      "lng": 35.169813
    },
    {
      "name_he": "ביתילו",
      "name_en": "Baytillu",
      "time": "דקה וחצי",
      "lat": 31.976599,
      "lng": 35.114167
    },
    {
      "name_he": "ביתין",
      "name_en": "Baytin",
      "time": "דקה וחצי",
      "lat": 31.926481,
      "lng": 35.236911
    },
    {
      "name_he": "ג'אניה",
      "name_en": "Janiya",
      "time": "דקה וחצי",
      "lat": 31.938419,
      "lng": 35.123984
    },
    {
      "name_he": "גבעת אסף",
      "name_en": "גבעת אסף",
      "time": "דקה וחצי",
      "lat": 31.911475,
      "lng": 35.250072
    },
    {
      "name_he": "גיבע מצפון לירושלים ",
      "name_en": "Jaba'",
      "time": "דקה וחצי",
      "lat": 31.858314,
      "lng": 35.260775
    },
    {
      "name_he": "גילזון",
      "name_en": "Jalazun",
      "time": "דקה וחצי",
      "lat": 31.951612,
      "lng": 35.212517
    },
    {
      "name_he": "גימאלא",
      "name_en": "",
      "time": "דקה וחצי",
      "lat": 0.0,
      "lng": 0.0
    },
    {
      "name_he": "גיפנא",
      "name_en": "Jifna",
      "time": "דקה וחצי",
      "lat": 31.963463,
      "lng": 35.215092
    },
    {
      "name_he": "דולב",
      "name_en": "Dolev",
      "time": "דקה וחצי",
      "lat": 31.926249,
      "lng": 35.133591
    },
    {
      "name_he": "דורא אל קריע",
      "name_en": "Dura el-Kari'a",
      "time": "דקה וחצי",
      "lat": 31.958519,
      "lng": 35.225893
    },
    {
      "name_he": "דיר איבזיע",
      "name_en": "Dayr Ibzi'",
      "time": "דקה וחצי",
      "lat": 31.916154,
      "lng": 35.120532
    },
    {
      "name_he": "דיר עמאר",
      "name_en": "Dayr 'Ammar",
      "time": "דקה וחצי",
      "lat": 31.966931,
      "lng": 35.09976
    },
    {
      "name_he": "ח'ירבת א טירה",
      "name_en": "Khirbat al-Tira",
      "time": "דקה וחצי",
      "lat": 31.910791,
      "lng": 35.18164
    },
    {
      "name_he": "ח'ירבת אל מיסבאח",
      "name_en": "Khirbat al-Misbah",
      "time": "דקה וחצי",
      "lat": 31.885266,
      "lng": 35.072073
    },
    {
      "name_he": "ח'ירבתא",
      "name_en": "Harbata",
      "time": "דקה וחצי",
      "lat": 31.945399,
      "lng": 35.072502
    },
    {
      "name_he": "טלמון",
      "name_en": "Talmon",
      "time": "דקה וחצי",
      "lat": 31.93947499999999,
      "lng": 35.133131
    },
    {
      "name_he": "יברוד",
      "name_en": "Yabrud",
      "time": "דקה וחצי",
      "lat": 31.975287,
      "lng": 35.243822
    },
    {
      "name_he": "כוכב יעקב",
      "name_en": "Derech Kohav Ya'akov, Kokhav Ya'akov",
      "time": "דקה וחצי",
      "lat": 31.8779827,
      "lng": 35.2447764
    },
    {
      "name_he": "כפר ניעמה",
      "name_en": "Kafr Ni'ma",
      "time": "דקה וחצי",
      "lat": 31.924437,
      "lng": 35.09692500000001
    },
    {
      "name_he": "כפר עקב",
      "name_en": "Kafr 'Aqb",
      "time": "דקה וחצי",
      "lat": 31.872486,
      "lng": 35.225322
    },
    {
      "name_he": "מזרעה אל קיבליה",
      "name_en": "Mazra'a al-Qibliya",
      "time": "דקה וחצי",
      "lat": 31.951601,
      "lng": 35.150742
    },
    {
      "name_he": "נחליאל",
      "name_en": "Nahliel",
      "time": "דקה וחצי",
      "lat": 31.973542,
      "lng": 35.140431
    },
    {
      "name_he": "ניל''י",
      "name_en": "הנשיא/ניל''י, Herzliya",
      "time": "דקה וחצי",
      "lat": 32.174008,
      "lng": 34.80842
    },
    {
      "name_he": "נעלה",
      "name_en": "Na'ale",
      "time": "דקה וחצי",
      "lat": 31.962594,
      "lng": 35.065976
    },
    {
      "name_he": "סורדה",
      "name_en": "Surda",
      "time": "דקה וחצי",
      "lat": 31.941752,
      "lng": 35.20318
    },
    {
      "name_he": "ספא",
      "name_en": "Spa, Belgium",
      "time": "דקה וחצי",
      "lat": 50.49243,
      "lng": 5.86432
    },
    {
      "name_he": "עין איוב",
      "name_en": "Ein Ayub",
      "time": "דקה וחצי",
      "lat": 31.947832,
      "lng": 35.095236
    },
    {
      "name_he": "עין יברוד",
      "name_en": "Ein Yabrud",
      "time": "דקה וחצי",
      "lat": 31.953259,
      "lng": 35.249852
    },
    {
      "name_he": "עין סיניא",
      "name_en": "Ein Sinya",
      "time": "דקה וחצי",
      "lat": 31.972239,
      "lng": 35.227966
    },
    {
      "name_he": "עין עריכ",
      "name_en": "Ein Arik",
      "time": "דקה וחצי",
      "lat": 31.907267,
      "lng": 35.14305
    },
    {
      "name_he": "עין קיניא",
      "name_en": "Ein Kinya",
      "time": "דקה וחצי",
      "lat": 33.237363,
      "lng": 35.731313
    },
    {
      "name_he": "קיביא",
      "name_en": "Qibya",
      "time": "דקה וחצי",
      "lat": 31.97868099999999,
      "lng": 35.012721
    },
    {
      "name_he": "קלנדיה",
      "name_en": "Qalandiya",
      "time": "דקה וחצי",
      "lat": 31.861597,
      "lng": 35.207914
    },
    {
      "name_he": "ראס כרכר",
      "name_en": "Ras Karkar",
      "time": "דקה וחצי",
      "lat": 31.942694,
      "lng": 35.103905
    },
    {
      "name_he": "רמאללה",
      "name_en": "Ramallah",
      "time": "דקה וחצי",
      "lat": 31.8980428,
      "lng": 35.2042714
    },
    {
      "name_he": "שבתין",
      "name_en": "Shabtin",
      "time": "דקה וחצי",
      "lat": 31.974291,
      "lng": 35.050558
    },
    {
      "name_he": "שוקבא",
      "name_en": "Shuqba",
      "time": "דקה וחצי",
      "lat": 31.98908299999999,
      "lng": 35.039516
    }
  ],
  "שומרון 120": [
    {
      "name_he": "א ראס",
      "name_en": "al-Ra's",
      "time": "דקה וחצי",
      "lat": 32.251748,
      "lng": 35.062921
    },
    {
      "name_he": "א.ת בראון",
      "name_en": "ד\"ר בר און שלומי, Weissburg Street 17, Tel Aviv, 69358, Israel",
      "time": "דקה וחצי",
      "lat": 32.1206092,
      "lng": 34.8288453
    },
    {
      "name_he": "אבני חפץ",
      "name_en": "Avnei Hefets",
      "time": "דקה וחצי",
      "lat": 32.284628,
      "lng": 35.074551
    },
    {
      "name_he": "אודלה",
      "name_en": "Udala",
      "time": "דקה וחצי",
      "lat": 32.153373,
      "lng": 35.275529
    },
    {
      "name_he": "אימאתין",
      "name_en": "Imatin",
      "time": "דקה וחצי",
      "lat": 32.192361,
      "lng": 35.159475
    },
    {
      "name_he": "איתמר",
      "name_en": "Itamar",
      "time": "דקה וחצי",
      "lat": 32.173869,
      "lng": 35.308029
    },
    {
      "name_he": "אל פונדוק",
      "name_en": "al Funduq",
      "time": "דקה וחצי",
      "lat": 32.190615,
      "lng": 35.13397399999999
    },
    {
      "name_he": "אלון מורה",
      "name_en": "Elon More",
      "time": "דקה וחצי",
      "lat": 32.234418,
      "lng": 35.331201
    },
    {
      "name_he": "באקה",
      "name_en": "Baqa",
      "time": "דקה וחצי",
      "lat": 32.206651,
      "lng": 35.115086
    },
    {
      "name_he": "בורין",
      "name_en": "Burin",
      "time": "דקה וחצי",
      "lat": 32.184659,
      "lng": 35.249229
    },
    {
      "name_he": "בית א אל פוקא",
      "name_en": "Beita el-Foka",
      "time": "דקה וחצי",
      "lat": 32.14134,
      "lng": 35.286399
    },
    {
      "name_he": "בית איבא",
      "name_en": "Beit Iba",
      "time": "דקה וחצי",
      "lat": 32.240059,
      "lng": 35.212557
    },
    {
      "name_he": "בית דג'ן",
      "name_en": "Bayt Dajan",
      "time": "דקה וחצי",
      "lat": 32.193122,
      "lng": 35.372773
    },
    {
      "name_he": "בית וזן",
      "name_en": "Bayt Wazan",
      "time": "דקה וחצי",
      "lat": 32.231566,
      "lng": 35.214616
    },
    {
      "name_he": "בית ליד",
      "name_en": "Bayt Lid",
      "time": "דקה וחצי",
      "lat": 32.261548,
      "lng": 35.13028
    },
    {
      "name_he": "בית פוריכ",
      "name_en": "Bayt Furik",
      "time": "דקה וחצי",
      "lat": 32.175456,
      "lng": 35.336484
    },
    {
      "name_he": "ביתא א תחתא",
      "name_en": "Bayta al-Tahta",
      "time": "דקה וחצי",
      "lat": 32.137716,
      "lng": 35.283704
    },
    {
      "name_he": "בלאטה",
      "name_en": "Balata",
      "time": "דקה וחצי",
      "lat": 32.207228,
      "lng": 35.285928
    },
    {
      "name_he": "ברכה",
      "name_en": "Ha-Brakha Street, Mash'en, Israel",
      "time": "דקה וחצי",
      "lat": 31.6550658,
      "lng": 34.629931
    },
    {
      "name_he": "גבעת סנה יעקב",
      "name_en": "",
      "time": "דקה וחצי",
      "lat": 0.0,
      "lng": 0.0
    },
    {
      "name_he": "ג'וניד",
      "name_en": "Juneid",
      "time": "דקה וחצי",
      "lat": 32.226076,
      "lng": 35.218249
    },
    {
      "name_he": "ג'יוס",
      "name_en": "Jayus",
      "time": "דקה וחצי",
      "lat": 32.200061,
      "lng": 35.033985
    },
    {
      "name_he": "ג'ית",
      "name_en": "Jit",
      "time": "דקה וחצי",
      "lat": 32.213184,
      "lng": 35.170689
    },
    {
      "name_he": "ג'מאעין",
      "name_en": "Jama'in",
      "time": "דקה וחצי",
      "lat": 32.13208,
      "lng": 35.203342
    },
    {
      "name_he": "דיר אל חטב",
      "name_en": "Dayr al-Hatab",
      "time": "דקה וחצי",
      "lat": 32.216882,
      "lng": 35.319464
    },
    {
      "name_he": "דיר שרף",
      "name_en": "Dayr Sharaf",
      "time": "דקה וחצי",
      "lat": 32.254578,
      "lng": 35.191041
    },
    {
      "name_he": "הר גריזים",
      "name_en": "Har Grizim (Mt. Gerizim) Street, Kfar Saba, Israel",
      "time": "דקה וחצי",
      "lat": 32.1800788,
      "lng": 34.9235273
    },
    {
      "name_he": "זוואתא",
      "name_en": "Zawata",
      "time": "דקה וחצי",
      "lat": 32.24597200000001,
      "lng": 35.227112
    },
    {
      "name_he": "זיתא",
      "name_en": "Zeita",
      "time": "דקה וחצי",
      "lat": 32.13685,
      "lng": 35.18652
    },
    {
      "name_he": "חג'ה",
      "name_en": "Hajjah, Yemen",
      "time": "דקה וחצי",
      "lat": 16.1180631,
      "lng": 43.329466
    },
    {
      "name_he": "ח'ווארה",
      "name_en": "Hawara",
      "time": "דקה וחצי",
      "lat": 32.151313,
      "lng": 35.256799
    },
    {
      "name_he": "חוות גלעד",
      "name_en": "Khavat Gil'ad",
      "time": "דקה וחצי",
      "lat": 32.199627,
      "lng": 35.181436
    },
    {
      "name_he": "ח'ירבת סיר",
      "name_en": "Khirbat Sir",
      "time": "דקה וחצי",
      "lat": 32.196879,
      "lng": 35.05994
    },
    {
      "name_he": "יאנון",
      "name_en": "Yanun",
      "time": "דקה וחצי",
      "lat": 32.145335,
      "lng": 35.355599
    },
    {
      "name_he": "יצהר",
      "name_en": "Yitzhar",
      "time": "דקה וחצי",
      "lat": 32.168529,
      "lng": 35.235944
    },
    {
      "name_he": "כור",
      "name_en": "Chur, Switzerland",
      "time": "דקה וחצי",
      "lat": 46.85726210000001,
      "lng": 9.5267305
    },
    {
      "name_he": "כפר ג'מאל",
      "name_en": "Kafr Jamal",
      "time": "דקה וחצי",
      "lat": 32.226102,
      "lng": 35.047203
    },
    {
      "name_he": "כפר זיבאד",
      "name_en": "Kafr Zibad",
      "time": "דקה וחצי",
      "lat": 32.225262,
      "lng": 35.070676
    },
    {
      "name_he": "כפר סור",
      "name_en": "Kafr Sur",
      "time": "דקה וחצי",
      "lat": 32.244032,
      "lng": 35.064616
    },
    {
      "name_he": "כפר עבוש",
      "name_en": "Kafr Abush",
      "time": "דקה וחצי",
      "lat": 32.22354,
      "lng": 35.083435
    },
    {
      "name_he": "כפר קדום",
      "name_en": "Kfar Kadum",
      "time": "דקה וחצי",
      "lat": 32.222715,
      "lng": 35.143133
    },
    {
      "name_he": "כפר קליל",
      "name_en": "Kafr Qalil",
      "time": "דקה וחצי",
      "lat": 32.190711,
      "lng": 35.275258
    },
    {
      "name_he": "מג'דל",
      "name_en": "Majdal",
      "time": "דקה וחצי",
      "lat": 32.082978,
      "lng": 35.364579
    },
    {
      "name_he": "מדמא",
      "name_en": "Madama",
      "time": "דקה וחצי",
      "lat": 32.183929,
      "lng": 35.233453
    },
    {
      "name_he": "נאקורה",
      "name_en": "Naqoura, Lebanon",
      "time": "דקה וחצי",
      "lat": 33.1182896,
      "lng": 35.1398657
    },
    {
      "name_he": "סאלם ",
      "name_en": "Salem, OR, USA",
      "time": "דקה וחצי",
      "lat": 44.9428975,
      "lng": -123.0350963
    },
    {
      "name_he": "סאלם ליד אלון מורה",
      "name_en": "Salem",
      "time": "דקה וחצי",
      "lat": 32.210415,
      "lng": 35.333372
    },
    {
      "name_he": "סבסטיה",
      "name_en": "Sebastia",
      "time": "דקה וחצי",
      "lat": 32.278241,
      "lng": 35.198633
    },
    {
      "name_he": "סלעית",
      "name_en": "Sal'it",
      "time": "דקה וחצי",
      "lat": 32.242589,
      "lng": 35.051258
    },
    {
      "name_he": "ספארין",
      "name_en": "Safarin",
      "time": "דקה וחצי",
      "lat": 32.261776,
      "lng": 35.110757
    },
    {
      "name_he": "סרה",
      "name_en": "Sara",
      "time": "דקה וחצי",
      "lat": 32.21048,
      "lng": 35.190414
    },
    {
      "name_he": "עוורתא",
      "name_en": "Awarta",
      "time": "דקה וחצי",
      "lat": 32.161522,
      "lng": 35.28638000000001
    },
    {
      "name_he": "עוסארין",
      "name_en": "Usarin",
      "time": "דקה וחצי",
      "lat": 32.124929,
      "lng": 35.309237
    },
    {
      "name_he": "עוריף",
      "name_en": "Urif",
      "time": "דקה וחצי",
      "lat": 32.158702,
      "lng": 35.224177
    },
    {
      "name_he": "עזמוט",
      "name_en": "Izmut",
      "time": "דקה וחצי",
      "lat": 32.22442,
      "lng": 35.309351
    },
    {
      "name_he": "עין יאנון",
      "name_en": "Ein Yanun",
      "time": "דקה וחצי",
      "lat": 32.158451,
      "lng": 35.359672
    },
    {
      "name_he": "עינאבוס",
      "name_en": "Einabus",
      "time": "דקה וחצי",
      "lat": 32.14594,
      "lng": 35.242889
    },
    {
      "name_he": "עיראק בורין",
      "name_en": "Irak Burin",
      "time": "דקה וחצי",
      "lat": 32.202409,
      "lng": 35.239118
    },
    {
      "name_he": "ענב",
      "name_en": "Einav Street, Sde Moshe, Israel",
      "time": "דקה וחצי",
      "lat": 31.6132073,
      "lng": 34.7991043
    },
    {
      "name_he": "עסירה אל קיבליה",
      "name_en": "Asira alQibliya",
      "time": "דקה וחצי",
      "lat": 32.178213,
      "lng": 35.211919
    },
    {
      "name_he": "עסכר",
      "name_en": "Iskar",
      "time": "דקה וחצי",
      "lat": 32.214561,
      "lng": 35.303685
    },
    {
      "name_he": "עקרבה",
      "name_en": "Akraba",
      "time": "דקה וחצי",
      "lat": 32.127586,
      "lng": 35.342735
    },
    {
      "name_he": "פלאמה",
      "name_en": "Falame",
      "time": "דקה וחצי",
      "lat": 32.224781,
      "lng": 35.022404
    },
    {
      "name_he": "פרעון",
      "name_en": "Far'un",
      "time": "דקה וחצי",
      "lat": 32.28548,
      "lng": 35.021481
    },
    {
      "name_he": "פרעתה",
      "name_en": "Far'ata",
      "time": "דקה וחצי",
      "lat": 32.189761,
      "lng": 35.166617
    },
    {
      "name_he": "קדומים",
      "name_en": "Kdumim",
      "time": "דקה וחצי",
      "lat": 32.21239,
      "lng": 35.157388
    },
    {
      "name_he": "קוזה",
      "name_en": "Quza",
      "time": "דקה וחצי",
      "lat": 32.138391,
      "lng": 35.253164
    },
    {
      "name_he": "קוסין",
      "name_en": "Qusin",
      "time": "דקה וחצי",
      "lat": 32.238982,
      "lng": 35.184083
    },
    {
      "name_he": "ראמין",
      "name_en": "Ramin",
      "time": "דקה וחצי",
      "lat": 32.284682,
      "lng": 35.14862
    },
    {
      "name_he": "רוג'ייב",
      "name_en": "Rujeib",
      "time": "דקה וחצי",
      "lat": 32.191628,
      "lng": 35.291606
    },
    {
      "name_he": "רפידיה",
      "name_en": "Rafidia",
      "time": "דקה וחצי",
      "lat": 32.227522,
      "lng": 35.223183
    },
    {
      "name_he": "שבי שומרון",
      "name_en": "Shavei Shomron",
      "time": "דקה וחצי",
      "lat": 32.26372,
      "lng": 35.183444
    },
    {
      "name_he": "שופה",
      "name_en": "Shufa",
      "time": "דקה וחצי",
      "lat": 32.276567,
      "lng": 35.08026
    },
    {
      "name_he": "שכם",
      "name_en": "Nablus",
      "time": "דקה וחצי",
      "lat": 32.22504,
      "lng": 35.260971
    },
    {
      "name_he": "תל",
      "name_en": "Tell",
      "time": "דקה וחצי",
      "lat": 32.200187,
      "lng": 35.213066
    }
  ],
  "שומרון 119": [
    {
      "name_he": "א שהאדה",
      "name_en": "alShahada",
      "time": "דקה וחצי",
      "lat": 32.429988,
      "lng": 35.271843
    },
    {
      "name_he": "אום א תות",
      "name_en": "Umm al-Tut",
      "time": "דקה וחצי",
      "lat": 32.431732,
      "lng": 35.344147
    },
    {
      "name_he": "איג'ניסיניא",
      "name_en": "Ijnisinia",
      "time": "דקה וחצי",
      "lat": 32.273099,
      "lng": 35.216532
    },
    {
      "name_he": "איכתאבא",
      "name_en": "Iktaba",
      "time": "דקה וחצי",
      "lat": 32.326014,
      "lng": 35.054225
    },
    {
      "name_he": "אירתאח",
      "name_en": "Irtah",
      "time": "דקה וחצי",
      "lat": 32.297763,
      "lng": 35.016529
    },
    {
      "name_he": "אל ג'ארושיה",
      "name_en": "al Jarushiyya",
      "time": "דקה וחצי",
      "lat": 32.34695,
      "lng": 35.049763
    },
    {
      "name_he": "אל מוטילה",
      "name_en": "al-Mutilla",
      "time": "דקה וחצי",
      "lat": 32.420861,
      "lng": 35.407319
    },
    {
      "name_he": "אל מוע'ייר",
      "name_en": "al-Mughayyer",
      "time": "דקה וחצי",
      "lat": 32.421701,
      "lng": 35.386433
    },
    {
      "name_he": "אקרע",
      "name_en": "Aqra'",
      "time": "דקה וחצי",
      "lat": 32.342457,
      "lng": 35.345071
    },
    {
      "name_he": "באקה א שרקיה",
      "name_en": "Baqa al-Sharqiyya",
      "time": "דקה וחצי",
      "lat": 32.411141,
      "lng": 35.071193
    },
    {
      "name_he": "בזאריה",
      "name_en": "Bazariya",
      "time": "דקה וחצי",
      "lat": 32.307275,
      "lng": 35.163804
    },
    {
      "name_he": "בית אומרין",
      "name_en": "Bayt Umrin",
      "time": "דקה וחצי",
      "lat": 32.292761,
      "lng": 35.215727
    },
    {
      "name_he": "בית קאד",
      "name_en": "Beit Kad",
      "time": "דקה וחצי",
      "lat": 32.470376,
      "lng": 35.356811
    },
    {
      "name_he": "בלעא",
      "name_en": "Bal'a",
      "time": "דקה וחצי",
      "lat": 32.332522,
      "lng": 35.109953
    },
    {
      "name_he": "ג'בע",
      "name_en": "Jaba'",
      "time": "דקה וחצי",
      "lat": 32.325027,
      "lng": 35.220164
    },
    {
      "name_he": "ג'ודידה",
      "name_en": "Jadeidi-Makr, Israel",
      "time": "דקה וחצי",
      "lat": 32.928656,
      "lng": 35.150573
    },
    {
      "name_he": "ג'לבון",
      "name_en": "Jalbun",
      "time": "דקה וחצי",
      "lat": 32.459986,
      "lng": 35.414691
    },
    {
      "name_he": "ג'למה",
      "name_en": "Jalame",
      "time": "דקה וחצי",
      "lat": 32.508814,
      "lng": 35.312956
    },
    {
      "name_he": "ג'נין",
      "name_en": "Jenin",
      "time": "דקה וחצי",
      "lat": 32.462068,
      "lng": 35.302535
    },
    {
      "name_he": "ג'רבה",
      "name_en": "Djerba, Tunisia",
      "time": "דקה וחצי",
      "lat": 33.8075978,
      "lng": 10.8451467
    },
    {
      "name_he": "דיר אבו דעיף",
      "name_en": "Dayr 'Abu Da'if",
      "time": "דקה וחצי",
      "lat": 32.456061,
      "lng": 35.364922
    },
    {
      "name_he": "דיר אל ע'וסוף",
      "name_en": "Dayr al-Ghusun",
      "time": "דקה וחצי",
      "lat": 32.353463,
      "lng": 35.074453
    },
    {
      "name_he": "דיר ע'זאלה",
      "name_en": "Dayr Ghazale",
      "time": "דקה וחצי",
      "lat": 32.495505,
      "lng": 35.351854
    },
    {
      "name_he": "דנאבה",
      "name_en": "Danaba",
      "time": "דקה וחצי",
      "lat": 32.31232,
      "lng": 35.04193
    },
    {
      "name_he": "ואדי א דבע",
      "name_en": "Wadi al-Daba'",
      "time": "דקה וחצי",
      "lat": 32.452484,
      "lng": 35.33248
    },
    {
      "name_he": "זאוויה בצפון שומרון",
      "name_en": "Zawiya",
      "time": "דקה וחצי",
      "lat": 32.375697,
      "lng": 35.23195
    },
    {
      "name_he": "זבאבידה",
      "name_en": "Zababida",
      "time": "דקה וחצי",
      "lat": 32.385202,
      "lng": 35.323479
    },
    {
      "name_he": "ח'ירבת אל עקרבאניה",
      "name_en": "Khirbat al-Aqrabaniya",
      "time": "דקה וחצי",
      "lat": 32.234667,
      "lng": 35.389176
    },
    {
      "name_he": "ח'ירבת בית חסן",
      "name_en": "Khirbat Bayt Hassan",
      "time": "דקה וחצי",
      "lat": 32.237706,
      "lng": 35.403806
    },
    {
      "name_he": "טובאס",
      "name_en": "Tubas",
      "time": "דקה וחצי",
      "lat": 32.321086,
      "lng": 35.369953
    },
    {
      "name_he": "טול כרם",
      "name_en": "Tul Karm",
      "time": "דקה וחצי",
      "lat": 32.311927,
      "lng": 35.026584
    },
    {
      "name_he": "טלוזה",
      "name_en": "Taluza",
      "time": "דקה וחצי",
      "lat": 32.27068,
      "lng": 35.29547900000001
    },
    {
      "name_he": "טמון",
      "name_en": "Tamun",
      "time": "דקה וחצי",
      "lat": 32.283121,
      "lng": 35.385789
    },
    {
      "name_he": "יאסיד",
      "name_en": "Yasid",
      "time": "דקה וחצי",
      "lat": 32.295967,
      "lng": 35.277143
    },
    {
      "name_he": "כופיר",
      "name_en": "Kufeir",
      "time": "דקה וחצי",
      "lat": 32.371729,
      "lng": 35.341252
    },
    {
      "name_he": "כפר א לבד",
      "name_en": "Kafr alLabad",
      "time": "דקה וחצי",
      "lat": 32.297028,
      "lng": 35.10999
    },
    {
      "name_he": "כפר ראעי",
      "name_en": "Kafr Ra'I",
      "time": "דקה וחצי",
      "lat": 32.373418,
      "lng": 35.155536
    },
    {
      "name_he": "כפר רומאן",
      "name_en": "Kfar Truman, Israel",
      "time": "דקה וחצי",
      "lat": 31.980493,
      "lng": 34.927696
    },
    {
      "name_he": "כשדה",
      "name_en": "Kashda",
      "time": "דקה וחצי",
      "lat": 32.311026,
      "lng": 35.344311
    },
    {
      "name_he": "מוח'יים פארעה",
      "name_en": "Mukhayyam Fari'a",
      "time": "דקה וחצי",
      "lat": 32.29376,
      "lng": 35.34362
    },
    {
      "name_he": "מירכה",
      "name_en": "Mirka",
      "time": "דקה וחצי",
      "lat": 32.39656900000001,
      "lng": 35.238829
    },
    {
      "name_he": "מית'לון",
      "name_en": "Meithalun",
      "time": "דקה וחצי",
      "lat": 32.34921,
      "lng": 35.271484
    },
    {
      "name_he": "מסיליה",
      "name_en": "Misilya",
      "time": "דקה וחצי",
      "lat": 32.38577,
      "lng": 35.286721
    },
    {
      "name_he": "משרוע בית קאד",
      "name_en": "Mashru' Beit Qad",
      "time": "דקה וחצי",
      "lat": 32.476749,
      "lng": 35.378301
    },
    {
      "name_he": "נור א שמס",
      "name_en": "Nur A-Shams",
      "time": "דקה וחצי",
      "lat": 32.318484,
      "lng": 35.059594
    },
    {
      "name_he": "נזלה אל ווסטא",
      "name_en": "Nazla al-Wusta",
      "time": "דקה וחצי",
      "lat": 32.40807,
      "lng": 35.095746
    },
    {
      "name_he": "נזלה אל ע'רביה",
      "name_en": "Nazla al-Gharbiya",
      "time": "דקה וחצי",
      "lat": 32.401356,
      "lng": 35.082587
    },
    {
      "name_he": "נזלת אבו נאר",
      "name_en": "Nazlet Abu Nar",
      "time": "דקה וחצי",
      "lat": 32.406999,
      "lng": 35.073955
    },
    {
      "name_he": "ניסף ג'וביל",
      "name_en": "Nisf Jubayl",
      "time": "דקה וחצי",
      "lat": 32.283107,
      "lng": 35.217452
    },
    {
      "name_he": "סאנור",
      "name_en": "Sanur",
      "time": "דקה וחצי",
      "lat": 32.358901,
      "lng": 35.246147
    },
    {
      "name_he": "סידא",
      "name_en": "Seida",
      "time": "דקה וחצי",
      "lat": 32.383616,
      "lng": 35.118773
    },
    {
      "name_he": "סילת א דהר",
      "name_en": "Silat al-Dahr",
      "time": "דקה וחצי",
      "lat": 32.317498,
      "lng": 35.187232
    },
    {
      "name_he": "סיר",
      "name_en": "Sierre, Switzerland",
      "time": "דקה וחצי",
      "lat": 46.291289,
      "lng": 7.53548
    },
    {
      "name_he": "סיריס",
      "name_en": "Siris",
      "time": "דקה וחצי",
      "lat": 32.328224,
      "lng": 35.292369
    },
    {
      "name_he": "עאבה",
      "name_en": "Aba",
      "time": "דקה וחצי",
      "lat": 32.458824,
      "lng": 35.323932
    },
    {
      "name_he": "ע'גה",
      "name_en": "",
      "time": "דקה וחצי",
      "lat": 0.0,
      "lng": 0.0
    },
    {
      "name_he": "עטארה",
      "name_en": "Atara",
      "time": "דקה וחצי",
      "lat": 32.00208,
      "lng": 35.206358
    },
    {
      "name_he": "עילאר",
      "name_en": "Ilar",
      "time": "דקה וחצי",
      "lat": 32.370703,
      "lng": 35.108646
    },
    {
      "name_he": "עין אל בידא",
      "name_en": "Ein Al-Beida",
      "time": "דקה וחצי",
      "lat": 32.261005,
      "lng": 35.317984
    },
    {
      "name_he": "ענזה",
      "name_en": "Anza",
      "time": "דקה וחצי",
      "lat": 32.358692,
      "lng": 35.219979
    },
    {
      "name_he": "ענתבא",
      "name_en": "Anabta",
      "time": "דקה וחצי",
      "lat": 32.307253,
      "lng": 35.119478
    },
    {
      "name_he": "עסירה א שמאליה",
      "name_en": "Asira alShimaliya",
      "time": "דקה וחצי",
      "lat": 32.251835,
      "lng": 35.268171
    },
    {
      "name_he": "עקבה בשומרון",
      "name_en": "Aqaba",
      "time": "דקה וחצי",
      "lat": 32.35291,
      "lng": 35.348145
    },
    {
      "name_he": "עקבת תיאסיר",
      "name_en": "Aqbat Tayasir",
      "time": "דקה וחצי",
      "lat": 32.324368,
      "lng": 35.387524
    },
    {
      "name_he": "עראנה",
      "name_en": "Arana",
      "time": "דקה וחצי",
      "lat": 32.496836,
      "lng": 35.322736
    },
    {
      "name_he": "ערבונה",
      "name_en": "Arabuna",
      "time": "דקה וחצי",
      "lat": 32.511904,
      "lng": 35.36431
    },
    {
      "name_he": "עתיל",
      "name_en": "Atil",
      "time": "דקה וחצי",
      "lat": 32.370069,
      "lng": 35.072538
    },
    {
      "name_he": "פחמה",
      "name_en": "Fahme",
      "time": "דקה וחצי",
      "lat": 32.38203,
      "lng": 35.180248
    },
    {
      "name_he": "פנדקומיה",
      "name_en": "Fandaqumiya",
      "time": "דקה וחצי",
      "lat": 32.320869,
      "lng": 35.203948
    },
    {
      "name_he": "פקועה",
      "name_en": "Faqqua",
      "time": "דקה וחצי",
      "lat": 32.490501,
      "lng": 35.400267
    },
    {
      "name_he": "קבאטיה",
      "name_en": "Kabatiya",
      "time": "דקה וחצי",
      "lat": 32.409583,
      "lng": 35.280093
    },
    {
      "name_he": "ראבא",
      "name_en": "Raba",
      "time": "דקה וחצי",
      "lat": 32.386823,
      "lng": 35.382663
    },
    {
      "name_he": "רמה",
      "name_en": "HaRama Street, Ganei Tikva, Israel",
      "time": "דקה וחצי",
      "lat": 32.0588695,
      "lng": 34.8693049
    },
    {
      "name_he": "שוויכה",
      "name_en": "Shuweika",
      "time": "דקה וחצי",
      "lat": 32.335396,
      "lng": 35.034871
    },
    {
      "name_he": "תיאסיר",
      "name_en": "Tayasir",
      "time": "דקה וחצי",
      "lat": 32.339402,
      "lng": 35.396266
    },
    {
      "name_he": "תלפית",
      "name_en": "Tilfit",
      "time": "דקה וחצי",
      "lat": 32.400872,
      "lng": 35.341609
    },
    {
      "name_he": "תנין",
      "name_en": "Tanin Street, Bat Yam, Israel",
      "time": "דקה וחצי",
      "lat": 32.0228952,
      "lng": 34.7552509
    }
  ],
  "יהודה 206": [
    {
      "name_he": "א שויוח",
      "name_en": "alShuyukh",
      "time": "דקה וחצי",
      "lat": 31.574996,
      "lng": 35.149421
    },
    {
      "name_he": "אל ערוב ",
      "name_en": "al'Arub",
      "time": "דקה וחצי",
      "lat": 31.617091,
      "lng": 35.143521
    },
    {
      "name_he": "אלון שבות",
      "name_en": "Alon Shvut",
      "time": "דקה וחצי",
      "lat": 31.654871,
      "lng": 35.125256
    },
    {
      "name_he": "אלעזר",
      "name_en": "El'azar",
      "time": "דקה וחצי",
      "lat": 31.659676,
      "lng": 35.143074
    },
    {
      "name_he": "אפרת",
      "name_en": "Efrat",
      "time": "דקה וחצי",
      "lat": 31.653589,
      "lng": 35.149934
    },
    {
      "name_he": "בית אומר",
      "name_en": "Bayt Umar",
      "time": "דקה וחצי",
      "lat": 31.622812,
      "lng": 35.102199
    },
    {
      "name_he": "בית כאחיל",
      "name_en": "Bayt Kahil",
      "time": "דקה וחצי",
      "lat": 31.57054699999999,
      "lng": 35.068931
    },
    {
      "name_he": "בית סכריא",
      "name_en": "Bayt Sakarya",
      "time": "דקה וחצי",
      "lat": 31.662876,
      "lng": 35.123008
    },
    {
      "name_he": "ביתר עילית",
      "name_en": "Betar Illit",
      "time": "דקה וחצי",
      "lat": 31.7010023,
      "lng": 35.1119254
    },
    {
      "name_he": "בת עין",
      "name_en": "Bat Ayin",
      "time": "דקה וחצי",
      "lat": 31.657653,
      "lng": 35.101101
    },
    {
      "name_he": "בתיר ",
      "name_en": "Battir",
      "time": "דקה וחצי",
      "lat": 31.728181,
      "lng": 35.138032
    },
    {
      "name_he": "דורא",
      "name_en": "Dura",
      "time": "דקה וחצי",
      "lat": 31.505093,
      "lng": 35.027527
    },
    {
      "name_he": "הר גילה",
      "name_en": "Har Gillo",
      "time": "דקה וחצי",
      "lat": 31.722058,
      "lng": 35.171491
    },
    {
      "name_he": "ואדי פוכין",
      "name_en": "Wadi Fukin",
      "time": "דקה וחצי",
      "lat": 31.707272,
      "lng": 35.104193
    },
    {
      "name_he": "חלחול",
      "name_en": "Halhul",
      "time": "דקה וחצי",
      "lat": 31.5798898,
      "lng": 35.0999042
    },
    {
      "name_he": "חסכה",
      "name_en": "Hasaka",
      "time": "דקה וחצי",
      "lat": 31.565192,
      "lng": 35.091385
    },
    {
      "name_he": "כוויזבא",
      "name_en": "Kweizba",
      "time": "דקה וחצי",
      "lat": 31.603912,
      "lng": 35.152208
    },
    {
      "name_he": "כפר עציון",
      "name_en": "Kfar Ezion",
      "time": "דקה וחצי",
      "lat": 31.649486,
      "lng": 35.115234
    },
    {
      "name_he": "כרמי צור",
      "name_en": "Karmei Zur",
      "time": "דקה וחצי",
      "lat": 31.609468,
      "lng": 35.101273
    },
    {
      "name_he": "מגדל עוז",
      "name_en": "Migdal Oz",
      "time": "דקה וחצי",
      "lat": 31.640932,
      "lng": 35.143139
    },
    {
      "name_he": "מועסכר אל ערובה",
      "name_en": "Mu'askar al'Arub",
      "time": "דקה וחצי",
      "lat": 31.62260199999999,
      "lng": 35.13812600000001
    },
    {
      "name_he": "מראח אל בקר",
      "name_en": "Marah Al-Baqr",
      "time": "דקה וחצי",
      "lat": 31.605668,
      "lng": 35.081604
    },
    {
      "name_he": "נווה דניאל",
      "name_en": "Neve Daniel",
      "time": "דקה וחצי",
      "lat": 31.67632,
      "lng": 35.143293
    },
    {
      "name_he": "נחאלין",
      "name_en": "Nahalin",
      "time": "דקה וחצי",
      "lat": 31.685608,
      "lng": 35.12036200000001
    },
    {
      "name_he": "סוריף",
      "name_en": "Surif",
      "time": "דקה וחצי",
      "lat": 31.649552,
      "lng": 35.064712
    },
    {
      "name_he": "סיעיר",
      "name_en": "Si'ir",
      "time": "דקה וחצי",
      "lat": 31.582455,
      "lng": 35.143776
    },
    {
      "name_he": "ראש צורים",
      "name_en": "Rosh Zurim",
      "time": "דקה וחצי",
      "lat": 31.66779099999999,
      "lng": 35.125288
    }
  ],
  "שומרון 121": [
    {
      "name_he": "א שייח' אחמד",
      "name_en": "alShaykh Ahmad",
      "time": "דקה וחצי",
      "lat": 32.148946,
      "lng": 35.001112
    },
    {
      "name_he": "אבו סלמאן",
      "name_en": "Abu Salman",
      "time": "דקה וחצי",
      "lat": 32.140361,
      "lng": 34.998989
    },
    {
      "name_he": "אל מודוור",
      "name_en": "al-Mudawwar",
      "time": "דקה וחצי",
      "lat": 32.143218,
      "lng": 35.01222600000001
    },
    {
      "name_he": "אלפי מנשה",
      "name_en": "Alfei Menashe",
      "time": "דקה וחצי",
      "lat": 32.170631,
      "lng": 35.014858
    },
    {
      "name_he": "אלקנה",
      "name_en": "Elkana",
      "time": "דקה וחצי",
      "lat": 32.110566,
      "lng": 35.032054
    },
    {
      "name_he": "בידיה",
      "name_en": "Biddya",
      "time": "דקה וחצי",
      "lat": 32.113366,
      "lng": 35.077465
    },
    {
      "name_he": "בית אמין",
      "name_en": "Bayt Amin",
      "time": "דקה וחצי",
      "lat": 32.131863,
      "lng": 35.021907
    },
    {
      "name_he": "ג'ינסאפוט",
      "name_en": "Jinsafut",
      "time": "דקה וחצי",
      "lat": 32.180632,
      "lng": 35.130154
    },
    {
      "name_he": "דיר איסתיא",
      "name_en": "Dayr Istiya",
      "time": "דקה וחצי",
      "lat": 32.130762,
      "lng": 35.140136
    },
    {
      "name_he": "ח'ירבת א נבי אליאס",
      "name_en": "Khirbat al-Nabi Elias",
      "time": "דקה וחצי",
      "lat": 32.184632,
      "lng": 35.016089
    },
    {
      "name_he": "ח'ירבת אל אשקר",
      "name_en": "Khirbat al-Ashqar",
      "time": "דקה וחצי",
      "lat": 32.140211,
      "lng": 35.020122
    },
    {
      "name_he": "ח'ירבת עסלה",
      "name_en": "Khirbat Asale",
      "time": "דקה וחצי",
      "lat": 32.17183,
      "lng": 35.032959
    },
    {
      "name_he": "ח'ירבת ראס א טירה",
      "name_en": "Khirbat Ras al-Tira",
      "time": "דקה וחצי",
      "lat": 32.161714,
      "lng": 35.010221
    },
    {
      "name_he": "ח'ירבת ראס עטיה",
      "name_en": "Khirbat Ras Atya",
      "time": "דקה וחצי",
      "lat": 32.158854,
      "lng": 34.991489
    },
    {
      "name_he": "יקיר",
      "name_en": "Yakir",
      "time": "דקה וחצי",
      "lat": 32.149831,
      "lng": 35.114631
    },
    {
      "name_he": "כפר לאקף",
      "name_en": "Kafr Laqif",
      "time": "דקה וחצי",
      "lat": 32.182406,
      "lng": 35.090541
    },
    {
      "name_he": "כפר ת'ולת",
      "name_en": "Kafr Thulth",
      "time": "דקה וחצי",
      "lat": 32.152799,
      "lng": 35.04529
    },
    {
      "name_he": "מסחה",
      "name_en": "Mas'ha",
      "time": "דקה וחצי",
      "lat": 32.107264,
      "lng": 35.050974
    },
    {
      "name_he": "מעלה שומרון",
      "name_en": "Ma'ale Shomron",
      "time": "דקה וחצי",
      "lat": 32.165406,
      "lng": 35.069744
    },
    {
      "name_he": "נופים",
      "name_en": "Nofim",
      "time": "דקה וחצי",
      "lat": 32.155458,
      "lng": 35.09984
    },
    {
      "name_he": "סניריא",
      "name_en": "Saniriya",
      "time": "דקה וחצי",
      "lat": 32.129167,
      "lng": 35.047442
    },
    {
      "name_he": "סרטא",
      "name_en": "Sarta",
      "time": "דקה וחצי",
      "lat": 32.103335,
      "lng": 35.091838
    },
    {
      "name_he": "עזון",
      "name_en": "Azun",
      "time": "דקה וחצי",
      "lat": 32.177101,
      "lng": 35.055957
    },
    {
      "name_he": "עזון עתמה",
      "name_en": "Azun Atme",
      "time": "דקה וחצי",
      "lat": 32.123667,
      "lng": 35.018481
    },
    {
      "name_he": "עמנואל",
      "name_en": "Imanu'el",
      "time": "דקה וחצי",
      "lat": 32.160688,
      "lng": 35.136036
    },
    {
      "name_he": "עץ אפרים",
      "name_en": "Ets Efraim",
      "time": "דקה וחצי",
      "lat": 32.119403,
      "lng": 35.046367
    },
    {
      "name_he": "צופין",
      "name_en": "Tsufin (Tsofim)",
      "time": "דקה וחצי",
      "lat": 32.197318,
      "lng": 35.008912
    },
    {
      "name_he": "קלקיליה",
      "name_en": "Qalqilya",
      "time": "דקה וחצי",
      "lat": 32.196015,
      "lng": 34.981513
    },
    {
      "name_he": "קראות בני חסן",
      "name_en": "Qarawat Bani HaSan",
      "time": "דקה וחצי",
      "lat": 32.128505,
      "lng": 35.099378
    },
    {
      "name_he": "קרני שומרון",
      "name_en": "Karnei Shomron",
      "time": "דקה וחצי",
      "lat": 32.171553,
      "lng": 35.097462
    },
    {
      "name_he": "שערי תקווה",
      "name_en": "Sha'arei Tikva",
      "time": "דקה וחצי",
      "lat": 32.120679,
      "lng": 35.026998
    }
  ],
  "עמק חפר 150": [
    {
      "name_he": "א.ת תנובות",
      "name_en": "Tnuvot, Israel",
      "time": "דקה וחצי",
      "lat": 32.305863,
      "lng": 34.962586
    },
    {
      "name_he": "אזור תעשייה תנובות",
      "name_en": "אזור תעשייה קלנסוואה, Qalansawe",
      "time": "דקה וחצי",
      "lat": 32.303726,
      "lng": 34.982349
    },
    {
      "name_he": "בארותיים",
      "name_en": "Be'erotayim, Israel",
      "time": "דקה וחצי",
      "lat": 32.321039,
      "lng": 34.98343
    },
    {
      "name_he": "בורגתה",
      "name_en": "Burgata, Israel",
      "time": "דקה וחצי",
      "lat": 32.325972,
      "lng": 34.963848
    },
    {
      "name_he": "בית הלוי",
      "name_en": "Beit HaLevi, Israel",
      "time": "דקה וחצי",
      "lat": 32.351596,
      "lng": 34.930443
    },
    {
      "name_he": "בת חפר",
      "name_en": "Bat Hefer, Israel",
      "time": "דקה וחצי",
      "lat": 32.333714,
      "lng": 35.013729
    },
    {
      "name_he": "גן יאשיה",
      "name_en": "Gan Yoshiya, Israel",
      "time": "דקה וחצי",
      "lat": 32.349487,
      "lng": 34.996245
    },
    {
      "name_he": "העוגן",
      "name_en": "HaOgen, Israel",
      "time": "דקה וחצי",
      "lat": 32.360437,
      "lng": 34.923338
    },
    {
      "name_he": "חניאל",
      "name_en": "Haniel, Israel, Israel",
      "time": "דקה וחצי",
      "lat": 32.332803,
      "lng": 34.947693
    },
    {
      "name_he": "יד חנה",
      "name_en": "Yad Hana, Israel",
      "time": "דקה וחצי",
      "lat": 32.325311,
      "lng": 35.006692
    },
    {
      "name_he": "ינוב",
      "name_en": "Yanuv, Israel",
      "time": "דקה וחצי",
      "lat": 32.307431,
      "lng": 34.951384
    },
    {
      "name_he": "כפר יונה",
      "name_en": "Kfar Yona, Israel",
      "time": "דקה וחצי",
      "lat": 32.317719,
      "lng": 34.933615
    },
    {
      "name_he": "כפר מונש",
      "name_en": "Kfar Monash, Israel",
      "time": "דקה וחצי",
      "lat": 32.345607,
      "lng": 34.916426
    },
    {
      "name_he": "מרכז האקדמי רופין",
      "name_en": "המרכז האקדמי רופין, 40250, Israel",
      "time": "דקה וחצי",
      "lat": 32.342406,
      "lng": 34.912319
    },
    {
      "name_he": "ניצני עוז",
      "name_en": "Nitzanei Oz, Israel",
      "time": "דקה וחצי",
      "lat": 32.306084,
      "lng": 35.003278
    },
    {
      "name_he": "עולש",
      "name_en": "Olesh, Israel",
      "time": "דקה וחצי",
      "lat": 32.331969,
      "lng": 34.98532100000001
    },
    {
      "name_he": "תנובות",
      "name_en": "Tnuvot, Israel",
      "time": "דקה וחצי",
      "lat": 32.305863,
      "lng": 34.962586
    }
  ],
  "נגב 287": [
    {
      "name_he": "אבו ג'אבר",
      "name_en": "Abu Jaber, Laqiya, Israel",
      "time": "דקה וחצי",
      "lat": 31.31525999999999,
      "lng": 34.868677
    },
    {
      "name_he": "אבו טראש",
      "name_en": "Abu Tarash, Omer, Israel, Israel",
      "time": "דקה וחצי",
      "lat": 31.289045,
      "lng": 34.854024
    },
    {
      "name_he": "אבו כף אום בטין",
      "name_en": "אבו כף ב",
      "time": "דקה וחצי",
      "lat": 31.289039,
      "lng": 34.878319
    },
    {
      "name_he": "אבו סריחאן",
      "name_en": "Abu Sarikhan, Israel",
      "time": "דקה וחצי",
      "lat": 31.254333,
      "lng": 34.881407
    },
    {
      "name_he": "אבו עבדון",
      "name_en": "Abu 'Abdun, Laqiya, Israel",
      "time": "דקה וחצי",
      "lat": 31.32427199999999,
      "lng": 34.874118
    },
    {
      "name_he": "אבו עמאר",
      "name_en": "Abu Ammar, Israel",
      "time": "דקה וחצי",
      "lat": 31.138356,
      "lng": 34.954032
    },
    {
      "name_he": "אבו עסא",
      "name_en": "Abu Isa, Israel",
      "time": "דקה וחצי",
      "lat": 31.250246,
      "lng": 34.873389
    },
    {
      "name_he": "אבו ריקייק",
      "name_en": "",
      "time": "דקה וחצי",
      "lat": 0.0,
      "lng": 0.0
    },
    {
      "name_he": "אל אסד",
      "name_en": "El-Asad, Israel",
      "time": "דקה וחצי",
      "lat": 31.31528,
      "lng": 34.85234
    },
    {
      "name_he": "לקיה",
      "name_en": "Laqiya, Israel",
      "time": "דקה וחצי",
      "lat": 31.324884,
      "lng": 34.866219
    },
    {
      "name_he": "עומר",
      "name_en": "Omer, Israel, Israel",
      "time": "דקה וחצי",
      "lat": 31.264305,
      "lng": 34.849864
    },
    {
      "name_he": "תל שבע",
      "name_en": "Tel as-Sabi, Israel",
      "time": "דקה וחצי",
      "lat": 31.247569,
      "lng": 34.861193
    }
  ],
  "בית שמש 189": [
    {
      "name_he": "אבו גוש",
      "name_en": "Abu Ghosh, Israel",
      "time": "דקה וחצי",
      "lat": 31.806293,
      "lng": 35.109193
    },
    {
      "name_he": "אולפני נווה אילן",
      "name_en": "אולפני נווה אילן",
      "time": "דקה וחצי",
      "lat": 31.80531899999999,
      "lng": 35.091856
    },
    {
      "name_he": "איתנים",
      "name_en": "Ha-Itnim Street, Kfar Hess, Israel",
      "time": "דקה וחצי",
      "lat": 32.2466339,
      "lng": 34.9374082
    },
    {
      "name_he": "בית מאיר",
      "name_en": "Beit Meir, Israel",
      "time": "דקה וחצי",
      "lat": 31.794786,
      "lng": 35.036753
    },
    {
      "name_he": "בר גיורא",
      "name_en": "Bar Giyora Street, Haifa, Israel",
      "time": "דקה וחצי",
      "lat": 32.8066557,
      "lng": 34.9949978
    },
    {
      "name_he": "גבעת יערים",
      "name_en": "Giv'at Ye'arim, Israel",
      "time": "דקה וחצי",
      "lat": 31.786089,
      "lng": 35.09277
    },
    {
      "name_he": "יד השמונה",
      "name_en": "Yad HaShmona, Israel",
      "time": "דקה וחצי",
      "lat": 31.80955,
      "lng": 35.089617
    },
    {
      "name_he": "ידידה",
      "name_en": "Yedida, Israel",
      "time": "דקה וחצי",
      "lat": 31.812281,
      "lng": 35.104639
    },
    {
      "name_he": "כסלון",
      "name_en": "Ksalon, Israel",
      "time": "דקה וחצי",
      "lat": 31.774262,
      "lng": 35.048171
    },
    {
      "name_he": "מטע",
      "name_en": "Mata, Israel, Israel",
      "time": "דקה וחצי",
      "lat": 31.716522,
      "lng": 35.060571
    },
    {
      "name_he": "נווה אילן",
      "name_en": "Neve Ilan, Israel",
      "time": "דקה וחצי",
      "lat": 31.807585,
      "lng": 35.080922
    },
    {
      "name_he": "נטף",
      "name_en": "Nataf, Israel",
      "time": "דקה וחצי",
      "lat": 31.831276,
      "lng": 35.06957999999999
    },
    {
      "name_he": "נס הרים",
      "name_en": "Nes Harim, Israel",
      "time": "דקה וחצי",
      "lat": 31.74419199999999,
      "lng": 35.059406
    },
    {
      "name_he": "עין נקובא",
      "name_en": "Ein Naqquba, Israel",
      "time": "דקה וחצי",
      "lat": 31.79391,
      "lng": 35.11968299999999
    },
    {
      "name_he": "עין ראפה",
      "name_en": "Ein Rafa, Israel",
      "time": "דקה וחצי",
      "lat": 31.790605,
      "lng": 35.116514
    },
    {
      "name_he": "קרית יערים מוסד",
      "name_en": "Kiryat Ye'arim Youth Village, Israel",
      "time": "דקה וחצי",
      "lat": 31.812281,
      "lng": 35.103581
    },
    {
      "name_he": "קרית יערים/טלז סטון",
      "name_en": "Kiryat Ye'arim Local Council, Kiryat Ye'arim, Israel",
      "time": "דקה וחצי",
      "lat": 31.8037795,
      "lng": 35.1025204
    },
    {
      "name_he": "רמת רזיאל",
      "name_en": "Ramat Raziel, Israel",
      "time": "דקה וחצי",
      "lat": 31.773573,
      "lng": 35.074447
    },
    {
      "name_he": "שואבה",
      "name_en": "Sho'eva, Israel",
      "time": "דקה וחצי",
      "lat": 31.799369,
      "lng": 35.079003
    },
    {
      "name_he": "שורש",
      "name_en": "Shoresh, Israel",
      "time": "דקה וחצי",
      "lat": 31.797488,
      "lng": 35.06529700000001
    }
  ],
  "גליל תחתון 63": [
    {
      "name_he": "אבו דיאב",
      "name_en": "Abu Diyab, Israel",
      "time": "דקה",
      "lat": 32.76924400000001,
      "lng": 35.17954400000001
    },
    {
      "name_he": "אום א סח'אלי",
      "name_en": "Um e-Sakhali, Israel",
      "time": "דקה",
      "lat": 32.77055,
      "lng": 35.177513
    },
    {
      "name_he": "אחיהוד",
      "name_en": "Ahihud, Israel",
      "time": "דקה",
      "lat": 32.907405,
      "lng": 35.171715
    },
    {
      "name_he": "אלון הגליל",
      "name_en": "Alon HaGalil, Israel",
      "time": "דקה",
      "lat": 32.756874,
      "lng": 35.220294
    },
    {
      "name_he": "אעבלין",
      "name_en": "I'billin, Israel",
      "time": "דקה",
      "lat": 32.821799,
      "lng": 35.19012
    },
    {
      "name_he": "אתגר",
      "name_en": "Etgar Street, Tirat Carmel, Israel",
      "time": "דקה",
      "lat": 32.7726121,
      "lng": 34.9678902
    },
    {
      "name_he": "בור אל מכסור",
      "name_en": "",
      "time": "דקה",
      "lat": 0.0,
      "lng": 0.0
    },
    {
      "name_he": "דמיידה",
      "name_en": "Dmeide, Israel",
      "time": "דקה",
      "lat": 32.8149647,
      "lng": 35.2265642
    },
    {
      "name_he": "הרדוף",
      "name_en": "Harduf, Israel",
      "time": "דקה",
      "lat": 32.763717,
      "lng": 35.174663
    },
    {
      "name_he": "ח'ואלד",
      "name_en": "Khawaled, Israel",
      "time": "דקה",
      "lat": 32.758894,
      "lng": 35.15837399999999
    },
    {
      "name_he": "חנתון",
      "name_en": "Hanaton, Israel",
      "time": "דקה",
      "lat": 32.783051,
      "lng": 35.245063
    },
    {
      "name_he": "טמרה",
      "name_en": "Tamra, Israel",
      "time": "דקה",
      "lat": 32.852247,
      "lng": 35.201315
    },
    {
      "name_he": "יבור",
      "name_en": "Yavor, Israel",
      "time": "דקה",
      "lat": 32.897317,
      "lng": 35.175737
    },
    {
      "name_he": "יובלים",
      "name_en": "Yuvalim, Israel",
      "time": "דקה",
      "lat": 32.878163,
      "lng": 35.269294
    },
    {
      "name_he": "יודפת",
      "name_en": "Yodfat, Israel",
      "time": "דקה",
      "lat": 32.836596,
      "lng": 35.271481
    },
    {
      "name_he": "יסעור",
      "name_en": "Yas'ur, Israel",
      "time": "דקה",
      "lat": 32.901145,
      "lng": 35.166641
    },
    {
      "name_he": "יעד",
      "name_en": "Ya'ad, Israel, Israel",
      "time": "דקה",
      "lat": 32.881225,
      "lng": 35.24064
    },
    {
      "name_he": "כאבול",
      "name_en": "Kabul, Israel, Israel",
      "time": "דקה",
      "lat": 32.8699737,
      "lng": 35.2054376
    },
    {
      "name_he": "כאוכב אבו אל היגא",
      "name_en": "Kaukab Abu al-Hija, Israel",
      "time": "דקה",
      "lat": 32.831888,
      "lng": 35.248701
    },
    {
      "name_he": "כפר מנדא",
      "name_en": "Kafr Manda, Israel",
      "time": "דקה",
      "lat": 32.81236,
      "lng": 35.258613
    },
    {
      "name_he": "מורשת",
      "name_en": "Moreshet, Israel",
      "time": "דקה",
      "lat": 32.826132,
      "lng": 35.231997
    },
    {
      "name_he": "מנוף",
      "name_en": "Manof, Israel",
      "time": "דקה",
      "lat": 32.853258,
      "lng": 35.237355
    },
    {
      "name_he": "מצפה אבי''ב",
      "name_en": "Mitzpe Aviv, Israel",
      "time": "דקה",
      "lat": 32.837951,
      "lng": 35.201059
    },
    {
      "name_he": "מרכז אזורי מישגב",
      "name_en": "Misgav, Israel",
      "time": "דקה",
      "lat": 32.858756,
      "lng": 35.259817
    },
    {
      "name_he": "נופית",
      "name_en": "Nofit, Israel",
      "time": "דקה",
      "lat": 32.763374,
      "lng": 35.148316
    },
    {
      "name_he": "סוואעד חמרייה",
      "name_en": "Sawa'ed, Israel",
      "time": "דקה",
      "lat": 32.766904,
      "lng": 35.16832400000001
    },
    {
      "name_he": "עדי",
      "name_en": "Adi, Israel, Israel",
      "time": "דקה",
      "lat": 32.782353,
      "lng": 35.173412
    },
    {
      "name_he": "ערב אל גנאדי",
      "name_en": "Arab el Ganadi, Israel",
      "time": "דקה",
      "lat": 32.760448,
      "lng": 35.178547
    },
    {
      "name_he": "ערב אל נעים",
      "name_en": "Arab al-Na'im, Israel",
      "time": "דקה",
      "lat": 32.888073,
      "lng": 35.290128
    },
    {
      "name_he": "ערב אל סגיראת",
      "name_en": "Arab e-Sgheirat, Shefa-'Amr, Israel",
      "time": "דקה",
      "lat": 32.800416,
      "lng": 35.188569
    },
    {
      "name_he": "ערב אל סמניה",
      "name_en": "Arab e-Samaniya, Shefa-'Amr, Israel",
      "time": "דקה",
      "lat": 32.801156,
      "lng": 35.193919
    },
    {
      "name_he": "קורנית",
      "name_en": "Koranit, Israel",
      "time": "דקה",
      "lat": 32.84441200000001,
      "lng": 35.251883
    },
    {
      "name_he": "ראס עלי",
      "name_en": "Ras Ali, Israel",
      "time": "דקה",
      "lat": 32.772911,
      "lng": 35.155512
    },
    {
      "name_he": "רקפת",
      "name_en": "Rakefet, Israel",
      "time": "דקה",
      "lat": 32.855569,
      "lng": 35.264237
    },
    {
      "name_he": "שגב/עצמון",
      "name_en": "Atsmon Street, Karmiel, Israel",
      "time": "דקה",
      "lat": 32.9159839,
      "lng": 35.2931439
    },
    {
      "name_he": "שורשים",
      "name_en": "Shorashim, Israel",
      "time": "דקה",
      "lat": 32.892651,
      "lng": 35.25856
    },
    {
      "name_he": "שכניה",
      "name_en": "Shekhanya, Israel",
      "time": "דקה",
      "lat": 32.849186,
      "lng": 35.246701
    },
    {
      "name_he": "שעב",
      "name_en": "Sha'ab, Israel, Israel",
      "time": "דקה",
      "lat": 32.88967,
      "lng": 35.238764
    },
    {
      "name_he": "שפרעם",
      "name_en": "Shefa-'Amr, Israel",
      "time": "דקה",
      "lat": 32.80576500000001,
      "lng": 35.169971
    },
    {
      "name_he": "תעשייון בר לב",
      "name_en": "",
      "time": "דקה",
      "lat": 0.0,
      "lng": 0.0
    }
  ],
  "יהודה 200": [
    {
      "name_he": "אבו נוג'ים",
      "name_en": "Abu Nujaym",
      "time": "דקה וחצי",
      "lat": 31.66192,
      "lng": 35.199291
    },
    {
      "name_he": "אום א טלע",
      "name_en": "Umm al-Tala'",
      "time": "דקה וחצי",
      "lat": 31.696829,
      "lng": 35.262868
    },
    {
      "name_he": "אום סלמונה",
      "name_en": "Umm Salmuna",
      "time": "דקה וחצי",
      "lat": 31.645665,
      "lng": 35.165229
    },
    {
      "name_he": "אום עסלה",
      "name_en": "Umm 'Asala",
      "time": "דקה וחצי",
      "lat": 31.699141,
      "lng": 35.281913
    },
    {
      "name_he": "אל ח'דר",
      "name_en": "al-Khadr",
      "time": "דקה וחצי",
      "lat": 31.694811,
      "lng": 35.170745
    },
    {
      "name_he": "אספר",
      "name_en": "Asfar",
      "time": "דקה וחצי",
      "lat": 31.586152,
      "lng": 35.187594
    },
    {
      "name_he": "ארטאס",
      "name_en": "Irtas",
      "time": "דקה וחצי",
      "lat": 31.689957,
      "lng": 35.188236
    },
    {
      "name_he": "בד פלוח",
      "name_en": "Bad Fluh",
      "time": "דקה וחצי",
      "lat": 31.669249,
      "lng": 35.219529
    },
    {
      "name_he": "בווידיעה",
      "name_en": "Buwaidi'a",
      "time": "דקה וחצי",
      "lat": 31.683946,
      "lng": 35.228412
    },
    {
      "name_he": "ביאדה",
      "name_en": "",
      "time": "דקה וחצי",
      "lat": 0.0,
      "lng": 0.0
    },
    {
      "name_he": "בית רחאל",
      "name_en": "Bayt Rahal",
      "time": "דקה וחצי",
      "lat": 31.670686,
      "lng": 35.178491
    },
    {
      "name_he": "בית תעמר",
      "name_en": "Bayt Ta'mar",
      "time": "דקה וחצי",
      "lat": 31.678719,
      "lng": 35.241822
    },
    {
      "name_he": "ג'וב א רום",
      "name_en": "Jub al-Rum",
      "time": "דקה וחצי",
      "lat": 31.744144,
      "lng": 35.268429
    },
    {
      "name_he": "ג'והזם",
      "name_en": "Juhazm",
      "time": "דקה וחצי",
      "lat": 31.705446,
      "lng": 35.27295100000001
    },
    {
      "name_he": "דהיישה מחנה פליטים",
      "name_en": "Dheisha Refugee Camp",
      "time": "דקה וחצי",
      "lat": 31.693516,
      "lng": 35.184562
    },
    {
      "name_he": "ד'הר חלת אל ג'אמיע",
      "name_en": "Dahr Halat al-Jami'",
      "time": "דקה וחצי",
      "lat": 31.668885,
      "lng": 35.202744
    },
    {
      "name_he": "ה",
      "name_en": "E, Kiryat Arba",
      "time": "דקה וחצי",
      "lat": 31.52993,
      "lng": 35.114801
    },
    {
      "name_he": "ואדי על עראיסה",
      "name_en": "",
      "time": "דקה וחצי",
      "lat": 0.0,
      "lng": 0.0
    },
    {
      "name_he": "זעתרה",
      "name_en": "Za'tara",
      "time": "דקה וחצי",
      "lat": 31.674444,
      "lng": 35.255091
    },
    {
      "name_he": "חוג'ילה",
      "name_en": "Hujayla",
      "time": "דקה וחצי",
      "lat": 31.709459,
      "lng": 35.253381
    },
    {
      "name_he": "ח'רזאן",
      "name_en": "Harzan",
      "time": "דקה וחצי",
      "lat": 31.733554,
      "lng": 35.269247
    },
    {
      "name_he": "חרמלה",
      "name_en": "Harmala",
      "time": "דקה וחצי",
      "lat": 31.661915,
      "lng": 35.220085
    },
    {
      "name_he": "כפר אלדד",
      "name_en": "Kfar Eldad",
      "time": "דקה וחצי",
      "lat": 31.653953,
      "lng": 35.250995
    },
    {
      "name_he": "מיניה",
      "name_en": "Minya, Qism Minya, Minya, Egypt",
      "time": "דקה וחצי",
      "lat": 28.0870967,
      "lng": 30.7618397
    },
    {
      "name_he": "מעלה עמוס",
      "name_en": "Ma'ale Amos",
      "time": "דקה וחצי",
      "lat": 31.596887,
      "lng": 35.22936500000001
    },
    {
      "name_he": "מעסרה",
      "name_en": "Ma'sara",
      "time": "דקה וחצי",
      "lat": 31.658258,
      "lng": 35.189953
    },
    {
      "name_he": "מצד שמעון",
      "name_en": "Mezad Shim'on",
      "time": "דקה וחצי",
      "lat": 31.601868,
      "lng": 35.196727
    },
    {
      "name_he": "מראח רבאח",
      "name_en": "Marah Rabah",
      "time": "דקה וחצי",
      "lat": 31.633423,
      "lng": 35.186779
    },
    {
      "name_he": "נוקדים",
      "name_en": "Nokdim",
      "time": "דקה וחצי",
      "lat": 31.645331,
      "lng": 35.244064
    },
    {
      "name_he": "עבדאללה איברהים",
      "name_en": "Abdalla Ibrahim",
      "time": "דקה וחצי",
      "lat": 31.664956,
      "lng": 35.166735
    },
    {
      "name_he": "עובידייה",
      "name_en": "Ubeidiya",
      "time": "דקה וחצי",
      "lat": 31.72383,
      "lng": 35.291821
    },
    {
      "name_he": "עילת עלי",
      "name_en": "Ilat Ali",
      "time": "דקה וחצי",
      "lat": 31.676972,
      "lng": 35.22177
    },
    {
      "name_he": "ערב א שמע",
      "name_en": "Arab alSham'a",
      "time": "דקה וחצי",
      "lat": 31.65461999999999,
      "lng": 35.178852
    },
    {
      "name_he": "ראס סניסיל",
      "name_en": "Ras Sinsil",
      "time": "דקה וחצי",
      "lat": 31.691451,
      "lng": 35.265172
    },
    {
      "name_he": "רפידא",
      "name_en": "Rafida",
      "time": "דקה וחצי",
      "lat": 31.667633,
      "lng": 35.22673899999999
    },
    {
      "name_he": "תוקוע",
      "name_en": "Tekoa",
      "time": "דקה וחצי",
      "lat": 31.639093,
      "lng": 35.21249
    },
    {
      "name_he": "תעמרה",
      "name_en": "Ta'amra",
      "time": "דקה וחצי",
      "lat": 31.569515,
      "lng": 35.22993
    },
    {
      "name_he": "תקוע",
      "name_en": "Tekoa",
      "time": "דקה וחצי",
      "lat": 31.652785,
      "lng": 35.227517
    }
  ],
  "גליל עליון 38": [
    {
      "name_he": "אבו סנאן",
      "name_en": "Abu Snan, Israel",
      "time": "30 שניות",
      "lat": 32.95803,
      "lng": 35.171969
    },
    {
      "name_he": "אשרת",
      "name_en": "Oshrat, Israel",
      "time": "30 שניות",
      "lat": 32.971645,
      "lng": 35.1557
    },
    {
      "name_he": "ג'וליס",
      "name_en": "Julis, Israel",
      "time": "30 שניות",
      "lat": 32.94498,
      "lng": 35.184243
    },
    {
      "name_he": "גיתה",
      "name_en": "Gita, Israel, Israel",
      "time": "30 שניות",
      "lat": 32.967233,
      "lng": 35.249125
    },
    {
      "name_he": "טל אל",
      "name_en": "Tal-El, Israel",
      "time": "30 שניות",
      "lat": 32.927306,
      "lng": 35.182499
    },
    {
      "name_he": "ירכא",
      "name_en": "Yarka, Israel",
      "time": "30 שניות",
      "lat": 32.953492,
      "lng": 35.21199
    },
    {
      "name_he": "כליל",
      "name_en": "Klil, Israel",
      "time": "30 שניות",
      "lat": 32.983567,
      "lng": 35.199672
    },
    {
      "name_he": "כפר יאסיף",
      "name_en": "Kafr Yasif, Israel",
      "time": "30 שניות",
      "lat": 32.9520318,
      "lng": 35.1599957
    },
    {
      "name_he": "לפידות",
      "name_en": "Lapidot, Israel",
      "time": "30 שניות",
      "lat": 32.959801,
      "lng": 35.260956
    },
    {
      "name_he": "עמקה",
      "name_en": "Amka, Israel",
      "time": "30 שניות",
      "lat": 32.977664,
      "lng": 35.161807
    }
  ],
  "נגב 297": [
    {
      "name_he": "אבו קוידר",
      "name_en": "Abu Queider, Israel",
      "time": "דקה וחצי",
      "lat": 31.206836,
      "lng": 34.923483
    },
    {
      "name_he": "אבו תלול",
      "name_en": "Abu Tulul, Israel",
      "time": "דקה וחצי",
      "lat": 31.142612,
      "lng": 34.913514
    },
    {
      "name_he": "אל חמידי",
      "name_en": "El-Hamidi, Israel",
      "time": "דקה וחצי",
      "lat": 31.204259,
      "lng": 34.87237400000001
    },
    {
      "name_he": "אל עת'אמין",
      "name_en": "El-Athamin (South to Nevatim), Israel",
      "time": "דקה וחצי",
      "lat": 31.20614599999999,
      "lng": 34.879442
    },
    {
      "name_he": "ביר אבו אל חמאם",
      "name_en": "Bir Abu el-Hamam, Israel",
      "time": "דקה וחצי",
      "lat": 31.222267,
      "lng": 34.896634
    },
    {
      "name_he": "נבטים",
      "name_en": "HaNavatim Street, Eilat, Israel",
      "time": "דקה וחצי",
      "lat": 29.5494585,
      "lng": 34.9323914
    },
    {
      "name_he": "שגב שלום",
      "name_en": "Shaqib al-Salam, Israel",
      "time": "דקה וחצי",
      "lat": 31.198361,
      "lng": 34.839665
    }
  ],
  "הקריות 71": [
    {
      "name_he": "אבטין",
      "name_en": "Ibtin, Israel",
      "time": "דקה",
      "lat": 32.759963,
      "lng": 35.114601
    },
    {
      "name_he": "אושה",
      "name_en": "Usha, Israel, Israel",
      "time": "דקה",
      "lat": 32.796458,
      "lng": 35.114584
    },
    {
      "name_he": "אל ח'וואלד מערב",
      "name_en": "El-Khawaled West, Israel",
      "time": "דקה",
      "lat": 32.770196,
      "lng": 35.136203
    },
    {
      "name_he": "אפק",
      "name_en": "Afek, Israel, Israel",
      "time": "דקה",
      "lat": 32.838316,
      "lng": 35.12778
    },
    {
      "name_he": "יגור",
      "name_en": "Yagur, Israel",
      "time": "דקה",
      "lat": 32.741532,
      "lng": 35.076826
    },
    {
      "name_he": "כפר המכבי",
      "name_en": "Kfar HaMaccabi, Israel",
      "time": "דקה",
      "lat": 32.791804,
      "lng": 35.114793
    },
    {
      "name_he": "כפר הנוער הדתי",
      "name_en": "Kfar HaNoar HaDati, Israel",
      "time": "דקה",
      "lat": 32.742897,
      "lng": 35.09615
    },
    {
      "name_he": "כפר חסידים",
      "name_en": "Kfar Hasidim, Israel",
      "time": "דקה",
      "lat": 32.752262,
      "lng": 35.094212
    },
    {
      "name_he": "כפר חסידים א'",
      "name_en": "Kfar Hasidim, Israel",
      "time": "דקה",
      "lat": 32.752262,
      "lng": 35.094212
    },
    {
      "name_he": "סרכיס",
      "name_en": "Sarkis, Kiryat Ata, Israel",
      "time": "דקה",
      "lat": 32.806195,
      "lng": 35.144518
    },
    {
      "name_he": "קרית אתא",
      "name_en": "Kiryat Ata, Israel",
      "time": "דקה",
      "lat": 32.809144,
      "lng": 35.119773
    },
    {
      "name_he": "רומיחאת",
      "name_en": "Rumeihat, Israel",
      "time": "דקה",
      "lat": 32.769928,
      "lng": 35.121611
    },
    {
      "name_he": "רכסים",
      "name_en": "Rekhasim, Israel",
      "time": "דקה",
      "lat": 32.749265,
      "lng": 35.099581
    },
    {
      "name_he": "רמת יוחנן",
      "name_en": "Ramat Yohanan, Israel",
      "time": "דקה",
      "lat": 32.793457,
      "lng": 35.122208
    }
  ],
  "גליל תחתון 60": [
    {
      "name_he": "אבטליון",
      "name_en": "Avtalion, Israel",
      "time": "דקה",
      "lat": 32.835781,
      "lng": 35.350442
    },
    {
      "name_he": "אשבל",
      "name_en": "Eshbal, Israel",
      "time": "דקה",
      "lat": 32.876984,
      "lng": 35.30601
    },
    {
      "name_he": "אשחר",
      "name_en": "Eshhar, Israel",
      "time": "דקה",
      "lat": 32.885084,
      "lng": 35.299622
    },
    {
      "name_he": "דייר חנא",
      "name_en": "Deir Hanna, Israel",
      "time": "דקה",
      "lat": 32.862316,
      "lng": 35.365253
    },
    {
      "name_he": "הררית",
      "name_en": "Hararit, Israel",
      "time": "דקה",
      "lat": 32.845696,
      "lng": 35.369257
    },
    {
      "name_he": "חוג'ייראת ד'הרה",
      "name_en": "",
      "time": "דקה",
      "lat": 0.0,
      "lng": 0.0
    },
    {
      "name_he": "חוסנייה",
      "name_en": "Hussniyya, Israel",
      "time": "דקה",
      "lat": 32.900573,
      "lng": 35.322507
    },
    {
      "name_he": "חזון",
      "name_en": "Hazon, Israel, Israel",
      "time": "דקה",
      "lat": 32.90658,
      "lng": 35.395291
    },
    {
      "name_he": "יחד",
      "name_en": "Yahad, Israel, Israel",
      "time": "דקה",
      "lat": 32.845979,
      "lng": 35.360748
    },
    {
      "name_he": "כמאנה",
      "name_en": "Kamanneh, Israel",
      "time": "דקה",
      "lat": 32.909311,
      "lng": 35.336928
    },
    {
      "name_he": "כמאנה מזרח",
      "name_en": "East Kamane, Israel",
      "time": "דקה",
      "lat": 32.913309,
      "lng": 35.350933
    },
    {
      "name_he": "כמון",
      "name_en": "Kamon, Israel, Israel",
      "time": "דקה",
      "lat": 32.909119,
      "lng": 35.360916
    },
    {
      "name_he": "לוטם",
      "name_en": "Lotem, Israel",
      "time": "דקה",
      "lat": 32.880858,
      "lng": 35.35996
    },
    {
      "name_he": "מורן",
      "name_en": "Moran, Israel, Israel",
      "time": "דקה",
      "lat": 32.921637,
      "lng": 35.39481
    },
    {
      "name_he": "מכמנים",
      "name_en": "Mikhmanim, Israel",
      "time": "דקה",
      "lat": 32.905865,
      "lng": 35.32899099999999
    },
    {
      "name_he": "סח'נין",
      "name_en": "Sakhnin, Israel",
      "time": "דקה",
      "lat": 32.864167,
      "lng": 35.294547
    },
    {
      "name_he": "סלמה",
      "name_en": "Shalma Road, Tel Aviv, Israel",
      "time": "דקה",
      "lat": 32.0547645,
      "lng": 34.7706342
    },
    {
      "name_he": "עראבה",
      "name_en": "Arraba, Galilee, Israel",
      "time": "דקה",
      "lat": 32.853705,
      "lng": 35.337167
    },
    {
      "name_he": "ערב אזונר",
      "name_en": "Arab Azunar, Deir Hanna, Israel",
      "time": "דקה",
      "lat": 32.870457,
      "lng": 35.368934
    },
    {
      "name_he": "צביה",
      "name_en": "צביה, Tsvia",
      "time": "דקה",
      "lat": 32.891436,
      "lng": 35.331253
    },
    {
      "name_he": "ראס אל עין",
      "name_en": "Ras al-Ein, Israel",
      "time": "דקה",
      "lat": 32.915734,
      "lng": 35.372703
    },
    {
      "name_he": "תרדיון",
      "name_en": "Tradyon Street, Tel Aviv, Israel",
      "time": "דקה",
      "lat": 32.0483844,
      "lng": 34.7927663
    }
  ],
  "מנשה 104": [
    {
      "name_he": "אביאל",
      "name_en": "Aviel, Israel",
      "time": "דקה וחצי",
      "lat": 32.531346,
      "lng": 34.993493
    },
    {
      "name_he": "אלוני יצחק",
      "name_en": "Alonei Yitzhak, Israel",
      "time": "דקה וחצי",
      "lat": 32.509997,
      "lng": 35.00519999999999
    },
    {
      "name_he": "בית חנניה",
      "name_en": "Beit Hanania, Israel",
      "time": "דקה וחצי",
      "lat": 32.529504,
      "lng": 34.926734
    },
    {
      "name_he": "בנימינה גבעת עדה",
      "name_en": "Binyamina-Giv'at Ada, Israel",
      "time": "דקה וחצי",
      "lat": 32.517078,
      "lng": 34.955096
    },
    {
      "name_he": "גבעת ניל''י",
      "name_en": "Givat Nili, Israel",
      "time": "דקה וחצי",
      "lat": 32.549043,
      "lng": 35.041194
    },
    {
      "name_he": "ג'סר א זרקא",
      "name_en": "Jisr az-Zarqa, Israel",
      "time": "דקה וחצי",
      "lat": 32.536262,
      "lng": 34.911569
    },
    {
      "name_he": "כפר גליקסון",
      "name_en": "Kfar Glikson, Israel",
      "time": "דקה וחצי",
      "lat": 32.505824,
      "lng": 35.00354
    },
    {
      "name_he": "מעגן מיכאל",
      "name_en": "Ma'agan Michael, Israel",
      "time": "דקה וחצי",
      "lat": 32.55871,
      "lng": 34.917816
    },
    {
      "name_he": "עמיקם",
      "name_en": "Amikam, Israel",
      "time": "דקה וחצי",
      "lat": 32.564626,
      "lng": 35.020326
    },
    {
      "name_he": "רגבים",
      "name_en": "Regavim, Israel",
      "time": "דקה וחצי",
      "lat": 32.52344,
      "lng": 35.033987
    }
  ],
  "קו העימות 22": [
    {
      "name_he": "אביבים",
      "name_en": "Avivim, Israel",
      "time": "מיידי",
      "lat": 33.089381,
      "lng": 35.470338
    },
    {
      "name_he": "ברעם",
      "name_en": "Bar'am, Israel",
      "time": "מיידי",
      "lat": 33.058979,
      "lng": 35.433235
    },
    {
      "name_he": "יראון",
      "name_en": "Yir'on, Israel",
      "time": "מיידי",
      "lat": 33.077239,
      "lng": 35.454291
    }
  ],
  "אשדוד 275 (45 שניות)": [
    {
      "name_he": "אביגדור",
      "name_en": "Avigdor, Israel",
      "time": "45 שניות",
      "lat": 31.711901,
      "lng": 34.740369
    },
    {
      "name_he": "אורות",
      "name_en": "Orot, Israel",
      "time": "45 שניות",
      "lat": 31.740364,
      "lng": 34.7356
    },
    {
      "name_he": "אחווה",
      "name_en": "Akhva Street, Arad, Israel",
      "time": "45 שניות",
      "lat": 31.259453,
      "lng": 35.219438
    },
    {
      "name_he": "אל עזי",
      "name_en": "Al-'Azi, Israel",
      "time": "45 שניות",
      "lat": 31.71886799999999,
      "lng": 34.814254
    },
    {
      "name_he": "באר טוביה",
      "name_en": "Be'er Tuvia, Israel",
      "time": "45 שניות",
      "lat": 31.737127,
      "lng": 34.72557
    },
    {
      "name_he": "כפר אחים",
      "name_en": "Kfar Ahim, Israel",
      "time": "45 שניות",
      "lat": 31.745864,
      "lng": 34.755932
    },
    {
      "name_he": "כפר ורבורג",
      "name_en": "Kfar Warburg, Israel",
      "time": "45 שניות",
      "lat": 31.718747,
      "lng": 34.72868
    },
    {
      "name_he": "מפעלי צומת מלאכי",
      "name_en": "",
      "time": "45 שניות",
      "lat": 0.0,
      "lng": 0.0
    },
    {
      "name_he": "ערוגות",
      "name_en": "Arugot, Israel",
      "time": "45 שניות",
      "lat": 31.732798,
      "lng": 34.77624
    },
    {
      "name_he": "קרית מלאכי",
      "name_en": "Kiryat Malakhi, Israel",
      "time": "45 שניות",
      "lat": 31.730202,
      "lng": 34.746996
    },
    {
      "name_he": "תימורים",
      "name_en": "Timorim, Israel",
      "time": "45 שניות",
      "lat": 31.716336,
      "lng": 34.761356
    }
  ],
  "שרון 138": [
    {
      "name_he": "אביחיל",
      "name_en": "Avihayil, Israel",
      "time": "דקה וחצי",
      "lat": 32.350708,
      "lng": 34.871229
    },
    {
      "name_he": "בית יצחק שער חפר",
      "name_en": "Beit Yitzhak-Sha'ar Hefer, Israel",
      "time": "דקה וחצי",
      "lat": 32.33558,
      "lng": 34.8895
    },
    {
      "name_he": "ביתן אהרן",
      "name_en": "Bitan Aharon, Israel",
      "time": "דקה וחצי",
      "lat": 32.364928,
      "lng": 34.86956
    },
    {
      "name_he": "גבעת שפירא",
      "name_en": "Givat Shapira, Israel",
      "time": "דקה וחצי",
      "lat": 32.35763,
      "lng": 34.875845
    },
    {
      "name_he": "גנות הדר",
      "name_en": "Ganot Hadar, Israel",
      "time": "דקה וחצי",
      "lat": 32.32174,
      "lng": 34.900715
    },
    {
      "name_he": "הדר עם",
      "name_en": "Hadar Am, Israel",
      "time": "דקה וחצי",
      "lat": 32.349653,
      "lng": 34.898945
    },
    {
      "name_he": "חבצלת השרון",
      "name_en": "Havatzelet HaSharon, Israel",
      "time": "דקה וחצי",
      "lat": 32.3604,
      "lng": 34.861819
    },
    {
      "name_he": "כפר חיים",
      "name_en": "Kfar Haim, Israel",
      "time": "דקה וחצי",
      "lat": 32.353857,
      "lng": 34.90070900000001
    },
    {
      "name_he": "כפר ידידיה",
      "name_en": "Kfar Yedidia, Israel",
      "time": "דקה וחצי",
      "lat": 32.344902,
      "lng": 34.899038
    },
    {
      "name_he": "מעברות",
      "name_en": "Ma'abarot, Israel, Israel",
      "time": "דקה וחצי",
      "lat": 32.364197,
      "lng": 34.905733
    },
    {
      "name_he": "משמר השרון",
      "name_en": "Mishmar HaSharon kibbutz, Israel",
      "time": "דקה וחצי",
      "lat": 32.356305,
      "lng": 34.904256
    },
    {
      "name_he": "נורדיה",
      "name_en": "Nordia, Israel",
      "time": "דקה וחצי",
      "lat": 32.314656,
      "lng": 34.896792
    },
    {
      "name_he": "נתניה",
      "name_en": "Netanya, Israel",
      "time": "דקה וחצי",
      "lat": 32.321458,
      "lng": 34.853196
    },
    {
      "name_he": "צוקי ים",
      "name_en": "Tzukei Yam, Israel",
      "time": "דקה וחצי",
      "lat": 32.360122,
      "lng": 34.858542
    },
    {
      "name_he": "שושנת העמקים",
      "name_en": "Shoshanat HaAmakim, Israel",
      "time": "דקה וחצי",
      "lat": 32.354794,
      "lng": 34.856814
    }
  ],
  "עמק יזרעאל 93": [
    {
      "name_he": "אביטל",
      "name_en": "Avital, Israel",
      "time": "דקה",
      "lat": 32.557676,
      "lng": 35.306412
    },
    {
      "name_he": "אדירים",
      "name_en": "Adirim, Israel",
      "time": "דקה",
      "lat": 32.54894100000001,
      "lng": 35.271637
    },
    {
      "name_he": "אומן",
      "name_en": "Uman', Cherkas'ka oblast, Ukraine",
      "time": "דקה",
      "lat": 48.75,
      "lng": 30.216667
    },
    {
      "name_he": "ברק",
      "name_en": "Barak Street, Kiryat Motzkin, Israel",
      "time": "דקה",
      "lat": 32.82928,
      "lng": 35.076543
    },
    {
      "name_he": "גבע",
      "name_en": "Geva, Israel",
      "time": "דקה",
      "lat": 32.56653000000001,
      "lng": 35.37216
    },
    {
      "name_he": "גדיש",
      "name_en": "Gadish, Israel",
      "time": "דקה",
      "lat": 32.558844,
      "lng": 35.24443
    },
    {
      "name_he": "גדעונה",
      "name_en": "Gidona, Israel",
      "time": "דקה",
      "lat": 32.549927,
      "lng": 35.359202
    },
    {
      "name_he": "גן נר",
      "name_en": "Gan Ner, Israel",
      "time": "דקה",
      "lat": 32.528706,
      "lng": 35.336254
    },
    {
      "name_he": "דבורה",
      "name_en": "Dvora, Israel, Israel",
      "time": "דקה",
      "lat": 32.552895,
      "lng": 35.263853
    },
    {
      "name_he": "חבר",
      "name_en": "Khaver Street, Arad, Israel",
      "time": "דקה",
      "lat": 31.26409,
      "lng": 35.215792
    },
    {
      "name_he": "טייבה ליד מולדת",
      "name_en": "Taibe, Galilee, Israel",
      "time": "דקה",
      "lat": 32.604701,
      "lng": 35.444573
    },
    {
      "name_he": "יזרעאל",
      "name_en": "Yizre'el, Israel",
      "time": "דקה",
      "lat": 32.562589,
      "lng": 35.319425
    },
    {
      "name_he": "יעל",
      "name_en": "Ya'el Street, Nesher, Israel",
      "time": "דקה",
      "lat": 32.773996,
      "lng": 35.0390414
    },
    {
      "name_he": "כפר יחזקאל",
      "name_en": "Kfar Yehezkel, Israel",
      "time": "דקה",
      "lat": 32.566949,
      "lng": 35.360888
    },
    {
      "name_he": "מגן שאול",
      "name_en": "Magen Shaul, Israel",
      "time": "דקה",
      "lat": 32.521471,
      "lng": 35.306431
    },
    {
      "name_he": "מוקייבלה",
      "name_en": "Muqeible, Israel",
      "time": "דקה",
      "lat": 32.514142,
      "lng": 35.294806
    },
    {
      "name_he": "מיטב",
      "name_en": "Meitav Street, Tel Aviv, Israel",
      "time": "דקה",
      "lat": 32.066746,
      "lng": 34.795167
    },
    {
      "name_he": "מלאה",
      "name_en": "Mle'a, Israel",
      "time": "דקה",
      "lat": 32.563149,
      "lng": 35.237528
    },
    {
      "name_he": "ניר יפה",
      "name_en": "Nir Yafeh, Israel",
      "time": "דקה",
      "lat": 32.568982,
      "lng": 35.244896
    },